-31.2,M,0.0,0000*4C
$GPGSA,A,3,25,19,23,28,06,27,13,11,08,03,,,1.4,0.8,1.2*32
$GPRMC,142922.830,A,2831.4703,N,08041.0068,W,0.09,136.52,211108,,*1E
$GPGGA,142922.830,2831.4703,N,08041.0068,W,1,10,0.8,8.5,M,-31.2,M,0.0,0000*47
$GPGSA,A,3,25,19,23,28,06,27,13,11,08,03,,,1.4,0.8,1.2*32
$GPRMC,142923.830,A,2831.4702,N,08041.0066,W,0.03,213.66,211108,,*19
$GPGGA,142923.830,2831.4702,N,08041.0066,W,1,09,0.8,7.8,M,-31.2,M,0.0,0000*43
$GPGSA,A,3,25,23,28,06,27,13,11,08,03,,,,1.5,0.8,1.2*3B
$GPRMC,142924.829,A,2831.4703,N,08041.0066,W,0.17,316.30,211108,,*15
$GPGGA,142924.829,2831.4703,N,08041.0066,W,1,10,0.8,7.4,M,-31.2,M,0.0,0000*49
$GPGSA,A,3,25,19,23,28,06,07,27,11,08,03,,,1.4,0.8,1.1*34
$GPRMC,142926.829,A,2831.4703,N,08041.0066,W,0.09,74.98,211108,,*2D
$GPGGA,142926.829,2831.4703,N,08041.0066,W,1,08,0.8,7.9,M,-31.2,M,0.0,0000*4F
$GPGSA,A,3,25,19,23,28,06,27,08,03,,,,,1.5,0.8,1.2*31
$GPRMC,142927.829,A,2831.4705,N,08041.0067,W,0.07,130.66,211108,,*15
$GPGGA,142927.829,2831.4705,N,08041.0067,W,1,07,1.0,7.9,M,-31.2,M,0.0,0000*4F
$GPGSA,A,3,25,19,23,28,06,27,13,,,,,,1.6,1.0,1.2*32
$GPRMC,142928.829,A,2831.4706,N,08041.0067,W,0.15,122.50,211108,,*1C
$GPGGA,142928.829,2831.4706,N,08041.0067,W,1,09,1.0,8.0,M,-31.2,M,0.0,0000*4B
$GPGSA,A,3,25,19,23,28,06,07,27,13,03,,,,1.5,1.0,1.1*36
$GPRMC,142929.829,A,2831.4707,N,08041.0068,W,0.06,127.26,211108,,*15
$GPGGA,142929.829,2831.4707,N,08041.0068,W,1,08,0.8,8.1,M,-31.2,M,0.0,0000*4D
$GPGSA,A,3,25,19,23,28,06,27,08,03,,,,,1.5,0.8,1.2*31
31.2,M,0.0,0000*44
$GPGSA,A,3,25,19,23,28,06,27,13,11,08,03,,,1.4,0.8,1.2*32
$GPRMC,142932.829,A,2831.4712,N,08041.0076,W,0.04,154.57,211108,,*14
$GPGGA,142932.829,2831.4712,N,08041.0076,W,1,11,0.8,8.8,M,-31.2,M,0.0,0000*4D
$GPGSA,A,3,25,19,23,28,06,07,27,13,11,08,03,,1.3,0.8,1.0*30
31.2,M,0.0,0000*4A
$GPGSA,A,3,25,19,23,28,06,07,27,13,11,08,03,,1.3,0.8,1.0*30
$GPRMC,142934.829,A,2831.4715,N,08041.0082,W,0.04,64.88,211108,,*2E
$GPGGA,142934.829,2831.4715,N,08041.0082,W,1,11,0.8,9.3,M,-31.2,M,0.0,0000*4D
$GPGSA,A,3,25,19,23,28,06,07,27,13,11,08,03,,1.3,0.8,1.0*30
$GPRMC,142936.829,A,2831.4713,N,08041.0087,W,0.08,123.51,211108,,*15
$GPGGA,142936.829,2831.4713,N,08041.0087,W,1,09,0.8,10.0,M,-31.2,M,0.0,0000*7E
$GPGSA,A,3,25,19,23,28,06,07,11,08,03,,,,1.4,0.8,1.1*31
$GPRMC,142937.829,A,2831.4712,N,08041.0089,W,0.09,98.45,211108,,*2E
$GPGGA,142937.829,2831.4712,N,08041.0089,W,1,09,0.8,10.4,M,-31.2,M,0.0,0000*74
$GPGSA,A,3,25,19,23,28,06,07,11,08,03,,,,1.4,0.8,1.1*31
$GPRMC,142938.829,A,2831.4712,N,08041.0091,W,0.10,68.92,211108,,*25
$GPGGA,142938.829,2831.4712,N,08041.0091,W,1,10,0.8,10.9,M,-31.2,M,0.0,0000*77
$GPGSA,A,3,25,19,23,28,06,07,27,11,08,03,,,1.4,0.8,1.1*34
$GPRMC,142939.829,A,2831.4712,N,08041.0094,W,0.06,117.28,211108,,*1E
$GPGGA,142939.829,2831.4712,N,08041.0094,W,1,10,0.8,11.1,M,-31.2,M,0.0,0000*7A
$GPGSA,A,3,19,23,28,06,07,27,13,11,08,03,,,1.4,0.8,1.2*32
$GPRMC,142941.828,A,2831.4714,N,08041.0099,W,0.07,68.02,211108,,*2B
$GPGGA,142941.828,2831.4714,N,08041.0099,W,1,09,1.0,10.5,M,-31.2,M,0.0,0000*7B
$GPGSA,A,3,25,19,28,06,07,27,11,08,03,,,,1.8,1.0,1.3*32
$GPRMC,142942.828,A,2831.4715,N,08041.0101,W,0.05,87.75,211108,,*2A
$GPGGA,142942.828,2831.4715,N,08041.0101,W,1,10,0.8,9.8,M,-31.2,M,0.0,0000*4D
$GPGSA,A,3,25,19,23,28,06,07,27,11,08,03,,,1.4,0.8,1.1*34
$GPRMC,142943.828,A,2831.4717,N,08041.0102,W,0.11,81.07,211108,,*2C
$GPGGA,142943.828,2831.4717,N,08041.0102,W,1,10,0.8,9.1,M,-31.2,M,0.0,0000*44
$GPGSA,A,3,25,19,23,28,06,07,27,11,08,03,,,1.4,0.8,1.1*34
$GPRMC,142944.828,A,2831.4718,N,08041.0102,W,0.04,102.70,211108,,*1A
$GPGGA,142944.828,2831.4718,N,08041.0102,W,1,11,0.8,8.6,M,-31.2,M,0.0,0000*4B
$GPGSA,A,3,25,19,23,28,06,07,27,13,11,08,03,,1.3,0.8,1.0*30
-31.2,M,0.0,0000*42
$GPGSA,A,3,25,19,23,28,06,07,27,13,11,08,03,,1.3,0.8,1.0*30
$GPRMC,142947.828,A,2831.4721,N,08041.0101,W,0.10,104.80,211108,,*1C
$GPGGA,142947.828,2831.4721,N,08041.0101,W,1,11,0.8,7.4,M,-31.2,M,0.0,0000*4C
$GPGSA,A,3,25,19,23,28,06,07,27,13,11,08,03,,1.3,0.8,1.0*30
$GPRMC,142948.828,A,2831.4721,N,08041.0099,W,0.11,83.83,211108,,*2F
$GPGGA,142948.828,2831.4721,N,08041.0099,W,1,10,0.8,7.1,M,-31.2,M,0.0,0000*47
$GPGSA,A,3,25,19,23,28,06,07,27,11,08,03,,,1.4,0.8,1.1*34
$GPRMC,142949.828,A,2831.4722,N,08041.0098,W,0.18,102.38,211108,,*1D
$GPGGA,142949.828,2831.4722,N,08041.0098,W,1,10,0.8,7.0,M,-31.2,M,0.0,0000*45
$GPGSA,A,3,25,19,23,28,06,07,27,11,08,03,,,1.4,0.8,1.1*34
-31.2,M,0.0,0000*44
$GPGSA,A,3,23,28,06,07,27,13,08,03,,,,,1.6,0.8,1.3*39
$GPRMC,142952.828,A,2831.4723,N,08041.0095,W,0.10,119.02,211108,,*10
$GPGGA,142952.828,2831.4723,N,08041.0095,W,1,08,0.8,8.3,M,-31.2,M,0.0,0000*46
$GPGSA,A,3,23,28,06,27,13,11,08,03,,,,,1.8,0.8,1.5*36
-31.2,M,0.0,0000*44
$GPGSA,A,3,19,23,28,06,27,11,08,03,,,,,1.6,0.8,1.4*33
$GPRMC,142954.828,A,2831.4725,N,08041.0095,W,0.06,45.42,211108,,*2B
$GPGGA,142954.828,2831.4725,N,08041.0095,W,1,08,1.6,8.9,M,-31.2,M,0.0,0000*43
$GPGSA,A,3,25,19,23,06,27,13,11,03,,,,,2.1,1.6,1.4*3F
$GPRMC,142956.828,A,2831.4725,N,08041.0095,W,0.12,61.72,211108,,*29
$GPGGA,142956.828,2831.4725,N,08041.0095,W,1,11,0.8,9.1,M,-31.2,M,0.0,0000*4F
$GPGSA,A,3,25,19,23,28,06,07,27,13,11,08,03,,1.3,0.8,1.0*30
$GPRMC,142957.827,A,2831.4726,N,08041.0094,W,0.21,68.51,211108,,*2D
$GPGGA,142957.827,2831.4726,N,08041.0094,W,1,09,0.8,9.9,M,-31.2,M,0.0,0000*42
$GPGSA,A,3,19,23,28,06,07,27,13,11,03,,,,1.5,0.8,1.2*3B
$GPRMC,142958.827,A,2831.4725,N,08041.0093,W,0.10,88.41,211108,,*2B
$GPGGA,142958.827,2831.4725,N,08041.0093,W,1,10,0.8,10.4,M,-31.2,M,0.0,0000*74
$GPGSA,A,3,25,19,23,28,06,07,27,13,11,03,,,1.4,0.8,1.0*3F
$GPRMC,142959.827,A,2831.4724,N,08041.0094,W,0.25,259.44,211108,,*11
$GPGGA,142959.827,2831.4724,N,08041.0094,W,1,10,0.8,10.8,M,-31.2,M,0.0,0000*7F
$GPGSA,A,3,25,19,23,28,06,07,27,13,11,03,,,1.4,0.8,1.0*3F
$GPRMC,143001.827,A,2831.4721,N,08041.0094,W,0.06,129.76,211108,,*15
$GPGGA,143001.827,2831.4721,N,08041.0094,W,1,08,1.0,11.3,M,-31.2,M,0.0,0000*75
$GPGSA,A,3,25,19,23,28,27,13,11,03,,,,,1.7,1.0,1.4*30
$GPRMC,143002.827,A,2831.4719,N,08041.0094,W,0.12,100.86,211108,,*1C
$GPGGA,143002.827,2831.4719,N,08041.0094,W,1,09,0.8,10.7,M,-31.2,M,0.0,0000*70
$GPGSA,A,3,25,19,23,28,07,27,13,11,03,,,,1.6,0.8,1.2*39
$GPRMC,143003.827,A,2831.4716,N,08041.0094,W,0.04,113.64,211108,,*1B
$GPGGA,143003.827,2831.4716,N,08041.0094,W,1,09,0.8,10.6,M,-31.2,M,0.0,0000*7F
$GPGSA,A,3,19,23,28,06,07,27,13,11,03,,,,1.5,0.8,1.2*3B
$GPRMC,143004.827,A,2831.4714,N,08041.0095,W,0.02,104.68,211108,,*13
$GPGGA,143004.827,2831.4714,N,08041.0095,W,1,10,0.8,10.5,M,-31.2,M,0.0,0000*70
$GPGSA,A,3,25,19,23,28,06,07,27,13,11,03,,,1.4,0.8,1.0*3F
,-31.2,M,0.0,0000*75
$GPGSA,A,3,25,19,23,28,06,07,27,13,11,03,,,1.4,0.8,1.0*3F
$GPRMC,143007.827,A,2831.4709,N,08041.0098,W,0.03,38.36,211108,,*25
$GPGGA,143007.827,2831.4709,N,08041.0098,W,1,10,0.8,10.4,M,-31.2,M,0.0,0000*73
$GPGSA,A,3,25,19,23,28,06,07,27,13,11,03,,,1.4,0.8,1.0*3F
$GPRMC,143008.827,A,2831.4710,N,08041.0099,W,0.07,38.37,211108,,*26
$GPGGA,143008.827,2831.4710,N,08041.0099,W,1,11,0.8,10.5,M,-31.2,M,0.0,0000*75
$GPGSA,A,3,25,19,23,28,06,07,27,13,11,08,03,,1.3,0.8,1.0*30
$GPRMC,143009.827,A,2831.4711,N,08041.0101,W,0.06,94.62,211108,,*21
$GPGGA,143009.827,2831.4711,N,08041.0101,W,1,11,0.8,10.6,M,-31.2,M,0.0,0000*76
$GPGSA,A,3,25,19,23,28,06,07,27,13,11,08,03,,1.3,0.8,1.0*30
$GPRMC,143011.827,A,2831.4711,N,08041.0102,W,0.05,92.99,211108,,*2A
$GPGGA,143011.827,2831.4711,N,08041.0102,W,1,11,0.8,9.8,M,-31.2,M,0.0,0000*4A
$GPGSA,A,3,25,19,23,28,06,07,27,13,11,08,03,,1.3,0.8,1.0*30
$GPRMC,143012.827,A,2831.4710,N,08041.0102,W,0.18,77.89,211108,,*2E
$GPGGA,143012.827,2831.4710,N,08041.0102,W,1,09,0.8,9.5,M,-31.2,M,0.0,0000*4C
$GPGSA,A,3,25,19,23,28,06,07,27,11,03,,,,1.4,0.8,1.1*3C
$GPRMC,143013.827,A,2831.4709,N,08041.0101,W,0.06,67.04,211108,,*2F
$GPGGA,143013.827,2831.4709,N,08041.0101,W,1,11,0.8,8.9,M,-31.2,M,0.0,0000*42
$GPGSA,A,3,25,19,23,28,06,07,27,13,11,08,03,,1.3,0.8,1.0*30
$GPRMC,143014.826,A,2831.4709,N,08041.0100,W,0.08,115.12,211108,,*15
$GPGGA,143014.826,2831.4709,N,08041.0100,W,1,11,0.8,8.8,M,-31.2,M,0.0,0000*44
$GPGSA,A,3,25,19,23,28,06,07,27,13,11,08,03,,1.3,0.8,1.0*30
$GPRMC,143016.826,A,2831.4710,N,08041.0098,W,0.05,52.93,211108,,*29
$GPGGA,143016.826,2831.4710,N,08041.0098,W,1,10,0.8,8.8,M,-31.2,M,0.0,0000*4F
$GPGSA,A,3,25,19,23,28,06,07,27,13,11,03,,,1.4,0.8,1.0*3F
$GPRMC,143017.826,A,2831.4711,N,08041.0096,W,0.07,124.60,211108,,*19
$GPGGA,143017.826,2831.4711,N,08041.0096,W,1,08,0.8,8.5,M,-31.2,M,0.0,0000*45
$GPGSA,A,3,19,23,28,06,27,13,11,03,,,,,1.7,0.8,1.4*38
$GPRMC,143018.826,A,2831.4711,N,08041.0093,W,0.04,96.95,211108,,*22
$GPGGA,143018.826,2831.4711,N,08041.0093,W,1,07,1.0,8.4,M,-31.2,M,0.0,0000*48
$GPGSA,A,3,19,28,06,27,13,11,03,,,,,,1.9,1.0,1.5*3F
$GPRMC,143019.826,A,2831.4711,N,08041.0091,W,0.08,113.63,211108,,*18
$GPGGA,143019.826,2831.4711,N,08041.0091,W,1,08,1.0,8.5,M,-31.2,M,0.0,0000*45
$GPGSA,A,3,19,28,06,07,27,13,08,03,,,,,1.7,1.0,1.3*38
$GPRMC,143021.826,A,2831.4713,N,08041.0088,W,0.09,93.39,211108,,*2E
$GPGGA,143021.826,2831.4713,N,08041.0088,W,1,07,1.0,9.4,M,-31.2,M,0.0,0000*4B
$GPGSA,A,3,25,19,28,27,13,11,03,,,,,,2.0,1.0,1.6*37
$GPRMC,143022.826,A,2831.4716,N,08041.0088,W,0.09,131.50,211108,,*1E
$GPGGA,143022.826,2831.4716,N,08041.0088,W,1,09,0.8,9.9,M,-31.2,M,0.0,0000*47
$GPGSA,A,3,25,19,23,28,27,13,11,08,03,,,,1.6,0.8,1.4*30
$GPRMC,143023.826,A,2831.4719,N,08041.0089,W,0.10,354.98,211108,,*1C
$GPGGA,143023.826,2831.4719,N,08041.0089,W,1,09,0.8,10.1,M,-31.2,M,0.0,0000*78
$GPGSA,A,3,25,19,23,28,27,13,11,08,03,,,,1.6,0.8,1.4*30
,-31.2,M,0.0,0000*7C
$GPGSA,A,3,19,23,28,27,13,11,08,03,,,,,1.9,0.8,1.6*3A
$GPRMC,143026.826,A,2831.4723,N,08041.0091,W,0.08,170.90,211108,,*1C
$GPGGA,143026.826,2831.4723,N,08041.0091,W,1,10,0.8,10.4,M,-31.2,M,0.0,0000*70
$GPGSA,A,3,25,19,23,28,06,07,27,13,11,03,,,1.4,0.8,1.0*3F
$GPRMC,143027.826,A,2831.4722,N,08041.0090,W,0.16,117.98,211108,,*1B
$GPGGA,143027.826,2831.4722,N,08041.0090,W,1,08,1.0,10.8,M,-31.2,M,0.0,0000*7D
$GPGSA,A,3,25,19,28,27,13,11,08,03,,,,,1.9,1.0,1.6*35
$GPRMC,143028.826,A,2831.4722,N,08041.0089,W,0.51,68.56,211108,,*24
$GPGGA,143028.826,2831.4722,N,08041.0089,W,1,10,0.8,11.5,M,-31.2,M,0.0,0000*76
$GPGSA,A,3,25,19,23,28,07,27,13,11,08,03,,,1.5,0.8,1.2*32
$GPRMC,143029.826,A,2831.4721,N,08041.0087,W,0.16,116.02,211108,,*12
$GPGGA,143029.826,2831.4721,N,08041.0087,W,1,09,0.8,12.9,M,-31.2,M,0.0,0000*7D
$GPGSA,A,3,25,19,23,28,07,27,13,08,03,,,,1.6,0.8,1.2*31
$GPRMC,143031.825,A,2831.4718,N,08041.0085,W,0.18,121.63,211108,,*1D
$GPGGA,143031.825,2831.4718,N,08041.0085,W,1,09,0.8,15.7,M,-31.2,M,0.0,0000*76
$GPGSA,A,3,25,19,23,28,07,27,13,08,03,,,,1.6,0.8,1.2*31
$GPRMC,143032.825,A,2831.4719,N,08041.0085,W,0.09,112.49,211108,,*17
$GPGGA,143032.825,2831.4719,N,08041.0085,W,1,09,0.8,16.5,M,-31.2,M,0.0,0000*75
$GPGSA,A,3,19,23,28,07,27,13,11,08,03,,,,1.7,0.8,1.4*31
$GPRMC,143033.825,A,2831.4719,N,08041.0086,W,0.06,116.10,211108,,*12
$GPGGA,143033.825,2831.4719,N,08041.0086,W,1,10,0.8,17.1,M,-31.2,M,0.0,0000*7A
$GPGSA,A,3,25,19,23,28,07,27,13,11,08,03,,,1.5,0.8,1.2*32
$GPRMC,143034.825,A,2831.4720,N,08041.0088,W,0.04,89.96,211108,,*2A
$GPGGA,143034.825,2831.4720,N,08041.0088,W,1,09,0.8,17.5,M,-31.2,M,0.0,0000*75
$GPGSA,A,3,19,23,28,07,27,13,11,08,03,,,,1.7,0.8,1.4*31
$GPRMC,143036.825,A,2831.4720,N,08041.0094,W,0.18,115.13,211108,,*11
$GPGGA,143036.825,2831.4720,N,08041.0094,W,1,10,0.8,17.0,M,-31.2,M,0.0,0000*77
$GPGSA,A,3,25,19,23,28,07,27,13,11,08,03,,,1.5,0.8,1.2*32
$GPRMC,143037.825,A,2831.4720,N,08041.0096,W,0.09,82.17,211108,,*29
$GPGGA,143037.825,2831.4720,N,08041.0096,W,1,10,0.8,15.4,M,-31.2,M,0.0,0000*72
$GPGSA,A,3,25,19,23,28,07,27,13,11,08,03,,,1.5,0.8,1.2*32
$GPRMC,143038.825,A,2831.4719,N,08041.0099,W,0.13,100.74,211108,,*16
$GPGGA,143038.825,2831.4719,N,08041.0099,W,1,10,0.8,13.3,M,-31.2,M,0.0,0000*79
$GPGSA,A,3,25,19,23,28,07,27,13,11,08,03,,,1.5,0.8,1.2*32
$GPRMC,143039.825,A,2831.4719,N,08041.0101,W,0.08,123.59,211108,,*13
$GPGGA,143039.825,2831.4719,N,08041.0101,W,1,10,0.8,11.1,M,-31.2,M,0.0,0000*78
$GPGSA,A,3,25,19,23,28,07,27,13,11,08,03,,,1.5,0.8,1.2*32
$GPRMC,143041.825,A,2831.4718,N,08041.0105,W,0.09,114.77,211108,,*10
$GPGGA,143041.825,2831.4718,N,08041.0105,W,1,10,0.8,7.0,M,-31.2,M,0.0,0000*44
$GPGSA,A,3,25,19,23,28,07,27,13,11,08,03,,,1.5,0.8,1.2*32
$GPRMC,143042.825,A,2831.4718,N,08041.0107,W,0.14,99.18,211108,,*20
$GPGGA,143042.825,2831.4718,N,08041.0107,W,1,10,0.8,5.3,M,-31.2,M,0.0,0000*44
$GPGSA,A,3,25,19,23,28,07,27,13,11,08,03,,,1.5,0.8,1.2*32
$GPRMC,143043.825,A,2831.4718,N,08041.0108,W,0.15,96.64,211108,,*2B
$GPGGA,143043.825,2831.4718,N,08041.0108,W,1,10,0.8,4.0,M,-31.2,M,0.0,0000*48
$GPGSA,A,3,25,19,23,28,07,27,13,11,08,03,,,1.5,0.8,1.2*32
31.2,M,0.0,0000*40
$GPGSA,A,3,25,19,23,28,07,27,11,08,03,,,,1.6,0.8,1.2*33
$GPRMC,143046.825,A,2831.4713,N,08041.0104,W,0.13,49.63,211108,,*2A
$GPGGA,143046.825,2831.4713,N,08041.0104,W,1,10,0.8,2.5,M,-31.2,M,0.0,0000*49
$GPGSA,A,3,25,19,23,28,07,27,13,11,08,03,,,1.5,0.8,1.2*32
$GPRMC,143048.824,A,2831.4711,N,08041.0100,W,0.12,109.61,211108,,*15
$GPGGA,143048.824,2831.4711,N,08041.0100,W,1,09,0.8,2.9,M,-31.2,M,0.0,0000*44
$GPGSA,A,3,25,19,23,28,07,27,13,08,03,,,,1.6,0.8,1.2*31
$GPRMC,143049.824,A,2831.4710,N,08041.0098,W,0.08,77.63,211108,,*24
$GPGGA,143049.824,2831.4710,N,08041.0098,W,1,10,0.8,3.1,M,-31.2,M,0.0,0000*45
$GPGSA,A,3,25,19,23,28,07,27,13,11,08,03,,,1.5,0.8,1.2*32
$GPRMC,143051.824,A,2831.4714,N,08041.0096,W,0.17,123.21,211108,,*1F
$GPGGA,143051.824,2831.4714,N,08041.0096,W,1,10,0.8,3.0,M,-31.2,M,0.0,0000*47
$GPGSA,A,3,25,19,23,28,07,27,13,11,08,03,,,1.5,0.8,1.2*32
$GPRMC,143052.824,A,2831.4714,N,08041.0095,W,0.08,125.82,211108,,*1E
$GPGGA,143052.824,2831.4714,N,08041.0095,W,1,09,0.8,3.2,M,-31.2,M,0.0,0000*4D
$GPGSA,A,3,25,19,23,28,07,27,13,11,03,,,,1.6,0.8,1.2*39
$GPRMC,143053.824,A,2831.4715,N,08041.0094,W,0.13,121.99,211108,,*1B
$GPGGA,143053.824,2831.4715,N,08041.0094,W,1,09,0.8,3.0,M,-31.2,M,0.0,0000*4E
$GPGSA,A,3,25,23,28,07,27,13,11,08,03,,,,1.6,0.8,1.2*39
-31.2,M,0.0,0000*41
$GPGSA,A,3,25,23,28,07,27,13,03,,,,,,1.7,1.0,1.2*39
-31.2,M,0.0,0000*47
$GPGSA,A,3,25,19,23,28,07,27,13,08,03,,,,1.6,0.8,1.2*31
$GPRMC,143057.824,A,2831.4714,N,08041.0089,W,0.06,108.76,211108,,*1C
$GPGGA,143057.824,2831.4714,N,08041.0089,W,1,10,0.8,3.4,M,-31.2,M,0.0,0000*4B
$GPGSA,A,3,25,19,23,28,07,27,13,11,08,03,,,1.5,0.8,1.2*32
$GPRMC,143058.824,A,2831.4715,N,08041.0088,W,0.05,99.93,211108,,*22
$GPGGA,143058.824,2831.4715,N,08041.0088,W,1,10,0.8,4.0,M,-31.2,M,0.0,0000*47
$GPGSA,A,3,25,19,23,28,07,27,13,11,08,03,,,1.5,0.8,1.2*32
-31.2,M,0.0,0000*4E
$GPGSA,A,3,25,19,23,28,07,27,13,11,08,03,,,1.5,0.8,1.2*32
$GPRMC,143101.824,A,2831.4715,N,08041.0087,W,0.13,103.45,211108,,*1E
$GPGGA,143101.824,2831.4715,N,08041.0087,W,1,09,0.8,4.9,M,-31.2,M,0.0,0000*44
$GPGSA,A,3,19,23,28,07,27,13,11,08,03,,,,1.7,0.8,1.4*31
$GPRMC,143102.824,A,2831.4714,N,08041.0088,W,0.07,24.98,211108,,*22
$GPGGA,143102.824,2831.4714,N,08041.0088,W,1,10,0.8,4.8,M,-31.2,M,0.0,0000*40
$GPGSA,A,3,25,19,23,28,07,27,13,11,08,03,,,1.5,0.8,1.2*32
$GPRMC,143103.823,A,2831.4714,N,08041.0089,W,0.15,226.68,211108,,*19
$GPGGA,143103.823,2831.4714,N,08041.0089,W,1,09,0.8,4.7,M,-31.2,M,0.0,0000*40
$GPGSA,A,3,25,19,23,28,07,27,13,11,03,,,,1.6,0.8,1.2*39
$GPRMC,143106.823,A,2831.4716,N,08041.0091,W,0.08,139.61,211108,,*1F
$GPGGA,143106.823,2831.4716,N,08041.0091,W,1,07,0.8,4.4,M,-31.2,M,0.0,0000*43
$GPGSA,A,3,23,28,27,13,11,08,03,,,,,,2.0,0.8,1.7*39
-31.2,M,0.0,0000*48
$GPGSA,A,3,19,23,28,27,13,11,08,03,,,,,1.9,0.8,1.6*3A
$GPRMC,143108.823,A,2831.4716,N,08041.0092,W,0.18,133.31,211108,,*1C
$GPGGA,143108.823,2831.4716,N,08041.0092,W,1,07,1.0,4.1,M,-31.2,M,0.0,0000*42
$GPGSA,A,3,19,23,28,07,13,11,03,,,,,,1.8,1.0,1.5*3B
$GPRMC,143109.823,A,2831.4716,N,08041.0092,W,0.10,70.19,211108,,*29
$GPGGA,143109.823,2831.4716,N,08041.0092,W,1,10,0.8,4.2,M,-31.2,M,0.0,0000*4F
$GPGSA,A,3,25,19,23,28,07,27,13,11,08,03,,,1.5,0.8,1.2*32
$GPRMC,143112.823,A,2831.4717,N,08041.0092,W,0.13,228.07,211108,,*11
$GPGGA,143112.823,2831.4717,N,08041.0092,W,1,06,1.8,4.4,M,-31.2,M,0.0,0000*44
$GPGSA,A,3,25,19,28,13,11,08,,,,,,,4.2,1.8,3.7*36
$GPRMC,143113.823,A,2831.4722,N,08041.0091,W,0.05,115.57,211108,,*1A
$GPGGA,143113.823,2831.4722,N,08041.0091,W,1,08,0.8,3.4,M,-31.2,M,0.0,0000*48
$GPGSA,A,3,25,19,23,28,13,11,08,03,,,,,1.8,0.8,1.5*3A
$GPRMC,143114.823,A,2831.4725,N,08041.0090,W,0.04,115.48,211108,,*14
$GPGGA,143114.823,2831.4725,N,08041.0090,W,1,09,0.8,2.7,M,-31.2,M,0.0,0000*4A
$GPGSA,A,3,25,19,23,28,27,13,11,08,03,,,,1.6,0.8,1.4*30
$GPRMC,143116.823,A,2831.4733,N,08041.0085,W,0.09,118.48,211108,,*15
$GPGGA,143116.823,2831.4733,N,08041.0085,W,1,10,0.8,1.7,M,-31.2,M,0.0,0000*40
$GPGSA,A,3,25,19,23,28,17,27,13,11,08,03,,,1.5,0.8,1.3*32
$GPRMC,143117.823,A,2831.4736,N,08041.0083,W,0.17,138.04,211108,,*12
$GPGGA,143117.823,2831.4736,N,08041.0083,W,1,09,0.8,2.2,M,-31.2,M,0.0,0000*4C
$GPGSA,A,3,25,19,28,17,27,13,11,08,03,,,,1.6,0.8,1.3*30
-31.2,M,0.0,0000*4D
$GPGSA,A,3,25,19,28,17,27,13,11,08,03,,,,1.6,0.8,1.3*30
$GPRMC,143119.822,A,2831.4740,N,08041.0078,W,0.09,137.56,211108,,*1F
$GPGGA,143119.822,2831.4740,N,08041.0078,W,1,10,0.8,3.6,M,-31.2,M,0.0,0000*4B
$GPGSA,A,3,25,19,23,28,17,27,13,11,08,03,,,1.5,0.8,1.3*32
$GPRMC,143121.822,A,2831.4738,N,08041.0074,W,0.05,102.76,211108,,*1F
$GPGGA,143121.822,2831.4738,N,08041.0074,W,1,10,0.8,4.2,M,-31.2,M,0.0,0000*40
$GPGSA,A,3,25,19,23,28,17,27,13,11,08,03,,,1.5,0.8,1.3*32
$GPRMC,143123.822,A,2831.4733,N,08041.0073,W,0.06,88.64,211108,,*22
$GPGGA,143123.822,2831.4733,N,08041.0073,W,1,10,0.8,3.9,M,-31.2,M,0.0,0000*42
$GPGSA,A,3,25,19,23,28,17,27,13,11,08,03,,,1.5,0.8,1.3*32
$GPRMC,143124.822,A,2831.4731,N,08041.0074,W,0.07,69.30,211108,,*2F
$GPGGA,143124.822,2831.4731,N,08041.0074,W,1,10,0.8,3.4,M,-31.2,M,0.0,0000*4D
$GPGSA,A,3,25,19,23,28,17,27,13,11,08,03,,,1.5,0.8,1.3*32
-31.2,M,0.0,0000*49
$GPGSA,A,3,25,19,23,28,07,17,27,13,11,08,03,,1.4,0.8,1.1*36
$GPRMC,143127.822,A,2831.4730,N,08041.0073,W,0.04,92.91,211108,,*26
$GPGGA,143127.822,2831.4730,N,08041.0073,W,1,11,0.8,2.0,M,-31.2,M,0.0,0000*4C
$GPGSA,A,3,25,19,23,28,07,17,27,13,11,08,03,,1.4,0.8,1.1*36
31.2,M,0.0,0000*41
$GPGSA,A,3,25,19,23,28,17,27,13,11,08,03,,,1.5,0.8,1.3*32
$GPRMC,143129.822,A,2831.4733,N,08041.0070,W,0.02,144.36,211108,,*19
$GPGGA,143129.822,2831.4733,N,08041.0070,W,1,10,0.8,2.8,M,-31.2,M,0.0,0000*4B
$GPGSA,A,3,25,19,23,28,17,27,13,11,08,03,,,1.5,0.8,1.3*32
$GPRMC,143131.822,A,2831.4734,N,08041.0071,W,0.01,32.22,211108,,*20
$GPGGA,143131.822,2831.4734,N,08041.0071,W,1,10,0.8,3.9,M,-31.2,M,0.0,0000*44
$GPGSA,A,3,25,19,23,28,17,27,13,11,08,03,,,1.5,0.8,1.3*32
$GPRMC,143132.822,A,2831.4733,N,08041.0073,W,0.04,72.07,211108,,*20
$GPGGA,143132.822,2831.4733,N,08041.0073,W,1,10,0.8,5.4,M,-31.2,M,0.0,0000*49
$GPGSA,A,3,25,19,23,28,17,27,13,11,08,03,,,1.5,0.8,1.3*32
$GPRMC,143133.822,A,2831.4731,N,08041.0076,W,0.09,140.75,211108,,*1E
$GPGGA,143133.822,2831.4731,N,08041.0076,W,1,10,0.8,6.9,M,-31.2,M,0.0,0000*41
$GPGSA,A,3,25,19,23,28,17,27,13,11,08,03,,,1.5,0.8,1.3*32
$GPRMC,143134.822,A,2831.4731,N,08041.0078,W,0.07,129.73,211108,,*10
$GPGGA,143134.822,2831.4731,N,08041.0078,W,1,08,1.4,8.2,M,-31.2,M,0.0,0000*49
$GPGSA,A,3,19,23,28,17,27,13,11,08,,,,,2.8,1.4,2.4*31
$GPRMC,143136.821,A,2831.4731,N,08041.0083,W,0.06,129.94,211108,,*1D
$GPGGA,143136.821,2831.4731,N,08041.0083,W,1,09,1.4,9.3,M,-31.2,M,0.0,0000*4D
$GPGSA,A,3,25,19,28,07,17,27,13,11,08,,,,2.6,1.4,2.1*3B
$GPRMC,143137.821,A,2831.4732,N,08041.0083,W,0.09,109.38,211108,,*14
$GPGGA,143137.821,2831.4732,N,08041.0083,W,1,11,0.8,8.4,M,-31.2,M,0.0,0000*4D
$GPGSA,A,3,25,19,23,28,07,17,27,13,11,08,03,,1.4,0.8,1.1*36
$GPRMC,143138.821,A,2831.4732,N,08041.0082,W,0.10,89.34,211108,,*27
$GPGGA,143138.821,2831.4732,N,08041.0082,W,1,11,0.8,7.4,M,-31.2,M,0.0,0000*4C
$GPGSA,A,3,25,19,23,28,07,17,27,13,11,08,03,,1.4,0.8,1.1*36
$GPRMC,143139.821,A,2831.4731,N,08041.0081,W,0.04,54.36,211108,,*21
$GPGGA,143139.821,2831.4731,N,08041.0081,W,1,11,0.8,6.8,M,-31.2,M,0.0,0000*40
$GPGSA,A,3,25,19,23,28,07,17,27,13,11,08,03,,1.4,0.8,1.1*36
$GPRMC,143141.821,A,2831.4733,N,08041.0078,W,0.06,107.57,211108,,*18
$GPGGA,143141.821,2831.4733,N,08041.0078,W,1,11,0.8,7.0,M,-31.2,M,0.0,0000*42
$GPGSA,A,3,25,19,23,28,07,17,27,13,11,08,03,,1.4,0.8,1.1*36
$GPRMC,143142.821,A,2831.4735,N,08041.0075,W,0.04,86.05,211108,,*2D
$GPGGA,143142.821,2831.4735,N,08041.0075,W,1,11,0.8,8.1,M,-31.2,M,0.0,0000*44
$GPGSA,A,3,25,19,23,28,07,17,27,13,11,08,03,,1.4,0.8,1.1*36
$GPRMC,143143.821,A,2831.4739,N,08041.0072,W,0.11,123.75,211108,,*1A
$GPGGA,143143.821,2831.4739,N,08041.0072,W,1,10,0.8,9.7,M,-31.2,M,0.0,0000*48
$GPGSA,A,3,25,19,23,28,07,27,13,11,08,03,,,1.5,0.8,1.2*32
$GPRMC,143144.821,A,2831.4741,N,08041.0070,W,0.07,135.99,211108,,*12
$GPGGA,143144.821,2831.4741,N,08041.0070,W,1,10,0.8,11.9,M,-31.2,M,0.0,0000*75
$GPGSA,A,3,25,19,23,28,07,27,13,11,08,03,,,1.5,0.8,1.2*32
$GPRMC,143146.821,A,2831.4744,N,08041.0064,W,0.19,92.55,211108,,*23
$GPGGA,143146.821,2831.4744,N,08041.0064,W,1,10,0.8,15.2,M,-31.2,M,0.0,0000*78
$GPGSA,A,3,25,19,23,28,07,27,13,11,08,03,,,1.5,0.8,1.2*32
$GPRMC,143147.821,A,2831.4746,N,08041.0060,W,0.10,24.68,211108,,*2E
$GPGGA,143147.821,2831.4746,N,08041.0060,W,1,10,0.8,15.4,M,-31.2,M,0.0,0000*79
$GPGSA,A,3,25,19,23,28,07,27,13,11,08,03,,,1.5,0.8,1.2*32
$GPRMC,143151.821,A,2831.4755,N,08041.0055,W,1.15,2.78,211108,,*1C
$GPGGA,143151.821,2831.4755,N,08041.0055,W,1,09,0.8,10.9,M,-31.2,M,0.0,0000*7A
$GPGSA,A,3,25,23,28,07,17,27,11,08,03,,,,1.5,0.8,1.1*3D
,-31.2,M,0.0,0000*7B
$GPGSA,A,3,25,19,23,28,07,17,27,11,08,03,,,1.5,0.8,1.1*35
$GPRMC,143153.820,A,2831.4758,N,08041.0055,W,1.28,0.82,211108,,*1B
$GPGGA,143153.820,2831.4758,N,08041.0055,W,1,11,0.8,9.1,M,-31.2,M,0.0,0000*4D
$GPGSA,A,3,25,19,23,28,07,17,27,13,11,08,03,,1.4,0.8,1.1*36
$GPRMC,143154.820,A,2831.4758,N,08041.0056,W,1.19,7.01,211108,,*11
$GPGGA,143154.820,2831.4758,N,08041.0056,W,1,09,1.0,8.5,M,-31.2,M,0.0,0000*4C
$GPGSA,A,3,25,19,23,07,27,13,11,08,03,,,,1.8,1.0,1.4*3A
-31.2,M,0.0,0000*41
$GPGSA,A,3,25,19,23,28,07,27,13,11,08,03,,,1.5,0.8,1.2*32
$GPRMC,143157.820,A,2831.4764,N,08041.0064,W,1.21,9.39,211108,,*12
$GPGGA,143157.820,2831.4764,N,08041.0064,W,1,10,0.8,7.7,M,-31.2,M,0.0,0000*4D
$GPGSA,A,3,25,19,23,28,07,27,13,11,08,03,,,1.5,0.8,1.2*32
1.2,M,0.0,0000*42
$GPGSA,A,3,25,19,23,28,07,27,13,11,08,03,,,1.5,0.8,1.2*32
$GPRMC,143159.820,A,2831.4767,N,08041.0070,W,1.10,0.85,211108,,*16
$GPGGA,143159.820,2831.4767,N,08041.0070,W,1,09,0.8,7.5,M,-31.2,M,0.0,0000*4F
$GPGSA,A,3,25,19,23,28,27,13,11,08,03,,,,1.6,0.8,1.3*37
$GPRMC,143201.820,A,2831.4772,N,08041.0077,W,0.75,353.33,211108,,*11
$GPGGA,143201.820,2831.4772,N,08041.0077,W,1,09,1.0,7.3,M,-31.2,M,0.0,0000*4D
$GPGSA,A,3,25,19,23,07,27,13,11,08,03,,,,1.8,1.0,1.4*3A
$GPRMC,143202.820,A,2831.4773,N,08041.0080,W,0.35,16.70,211108,,*2A
$GPGGA,143202.820,2831.4773,N,08041.0080,W,1,08,1.2,7.3,M,-31.2,M,0.0,0000*44
$GPGSA,A,3,25,19,23,07,27,11,08,03,,,,,1.9,1.2,1.4*3B
$GPRMC,143203.820,A,2831.4774,N,08041.0082,W,0.19,333.87,211108,,*1C
$GPGGA,143203.820,2831.4774,N,08041.0082,W,1,10,0.8,6.8,M,-31.2,M,0.0,0000*48
$GPGSA,A,3,25,19,23,28,07,27,13,11,08,03,,,1.5,0.8,1.2*32
$GPRMC,143204.820,A,2831.4774,N,08041.0084,W,0.11,352.33,211108,,*1D
$GPGGA,143204.820,2831.4774,N,08041.0084,W,1,10,0.8,6.4,M,-31.2,M,0.0,0000*45
$GPGSA,A,3,25,19,23,28,07,27,13,11,08,03,,,1.5,0.8,1.2*32
$GPRMC,143206.820,A,2831.4773,N,08041.0084,W,0.17,153.39,211108,,*17
$GPGGA,143206.820,2831.4773,N,08041.0084,W,1,09,1.0,5.8,M,-31.2,M,0.0,0000*4E
$GPGSA,A,3,25,19,28,07,27,13,11,08,03,,,,1.7,1.0,1.4*3E
$GPRMC,143207.820,A,2831.4771,N,08041.0083,W,0.19,13.55,211108,,*22
$GPGGA,143207.820,2831.4771,N,08041.0083,W,1,09,0.8,5.8,M,-31.2,M,0.0,0000*43
$GPGSA,A,3,25,23,28,07,27,13,11,08,03,,,,1.6,0.8,1.2*39
31.2,M,0.0,0000*4D
$GPGSA,A,3,25,23,28,07,27,13,11,08,03,,,,1.6,0.8,1.2*39
-31.2,M,0.0,0000*4A
$GPGSA,A,3,25,19,23,28,07,27,13,11,08,03,,,1.5,0.8,1.2*32
$GPRMC,143212.819,A,2831.4771,N,08041.0082,W,0.05,153.03,211108,,*16
$GPGGA,143212.819,2831.4771,N,08041.0082,W,1,10,0.8,7.5,M,-31.2,M,0.0,0000*4B
$GPGSA,A,3,25,19,23,28,07,27,13,11,08,03,,,1.5,0.8,1.2*32
$GPRMC,143213.819,A,2831.4771,N,08041.0083,W,0.06,87.95,211108,,*22
$GPGGA,143213.819,2831.4771,N,08041.0083,W,1,10,0.8,7.6,M,-31.2,M,0.0,0000*48
$GPGSA,A,3,25,19,23,28,07,27,13,11,08,03,,,1.5,0.8,1.2*32
$GPRMC,143214.819,A,2831.4772,N,08041.0083,W,0.12,100.23,211108,,*10
$GPGGA,143214.819,2831.4772,N,08041.0083,W,1,10,0.8,7.4,M,-31.2,M,0.0,0000*4E
$GPGSA,A,3,25,19,23,28,07,27,13,11,08,03,,,1.5,0.8,1.2*32
$GPRMC,143216.819,A,2831.4772,N,08041.0085,W,0.03,125.42,211108,,*14
$GPGGA,143216.819,2831.4772,N,08041.0085,W,1,09,0.8,6.6,M,-31.2,M,0.0,0000*41
$GPGSA,A,3,25,23,28,07,27,13,11,08,03,,,,1.6,0.8,1.2*39
$GPRMC,143217.819,A,2831.4772,N,08041.0085,W,0.11,104.50,211108,,*16
$GPGGA,143217.819,2831.4772,N,08041.0085,W,1,09,1.0,6.5,M,-31.2,M,0.0,0000*4A
$GPGSA,A,3,25,19,23,07,27,13,11,08,03,,,,1.8,1.0,1.3*3D
$GPRMC,143218.819,A,2831.4772,N,08041.0084,W,0.23,98.65,211108,,*2B
$GPGGA,143218.819,2831.4772,N,08041.0084,W,1,08,0.8,6.5,M,-31.2,M,0.0,0000*4C
$GPGSA,A,3,19,23,28,07,27,11,08,03,,,,,1.7,0.8,1.3*34
$GPRMC,143219.819,A,2831.4771,N,08041.0082,W,0.05,103.78,211108,,*14
$GPGGA,143219.819,2831.4771,N,08041.0082,W,1,08,0.8,6.7,M,-31.2,M,0.0,0000*4A
$GPGSA,A,3,19,23,28,07,27,11,08,03,,,,,1.7,0.8,1.3*34
$GPRMC,143221.819,A,2831.4769,N,08041.0077,W,0.06,73.57,211108,,*24
$GPGGA,143221.819,2831.4769,N,08041.0077,W,1,08,1.0,7.6,M,-31.2,M,0.0,0000*4B
$GPGSA,A,3,19,28,07,27,13,11,08,03,,,,,1.8,1.0,1.5*37
$GPRMC,143222.819,A,2831.4768,N,08041.0075,W,0.10,63.05,211108,,*25
$GPGGA,143222.819,2831.4768,N,08041.0075,W,1,09,0.8,8.3,M,-31.2,M,0.0,0000*49
$GPGSA,A,3,19,28,07,17,27,13,11,08,03,,,,1.6,0.8,1.3*30
$GPRMC,143223.819,A,2831.4768,N,08041.0072,W,0.10,107.12,211108,,*16
$GPGGA,143223.819,2831.4768,N,08041.0072,W,1,11,0.8,8.5,M,-31.2,M,0.0,0000*40
$GPGSA,A,3,25,19,23,28,07,17,27,13,11,08,03,,1.4,0.8,1.1*36
-31.2,M,0.0,0000*4B
$GPGSA,A,3,25,19,23,28,07,27,13,11,08,03,,,1.5,0.8,1.2*32
$GPRMC,143226.818,A,2831.4765,N,08041.0066,W,0.03,122.14,211108,,*19
$GPGGA,143226.818,2831.4765,N,08041.0066,W,1,08,1.0,8.0,M,-31.2,M,0.0,0000*48
$GPGSA,A,3,19,23,28,07,27,13,11,03,,,,,1.7,1.0,1.3*37
$GPRMC,143227.818,A,2831.4765,N,08041.0066,W,0.05,156.84,211108,,*14
$GPGGA,143227.818,2831.4765,N,08041.0066,W,1,08,1.0,7.6,M,-31.2,M,0.0,0000*40
$GPGSA,A,3,25,23,28,07,27,13,11,03,,,,,1.6,1.0,1.2*38
$GPRMC,143228.818,A,2831.4765,N,08041.0065,W,0.14,102.68,211108,,*1B
$GPGGA,143228.818,2831.4765,N,08041.0065,W,1,09,0.8,7.3,M,-31.2,M,0.0,0000*41
$GPGSA,A,3,25,19,23,28,07,27,13,11,03,,,,1.6,0.8,1.2*39
$GPRMC,143229.818,A,2831.4764,N,08041.0065,W,0.11,113.86,211108,,*1E
$GPGGA,143229.818,2831.4764,N,08041.0065,W,1,09,0.8,6.9,M,-31.2,M,0.0,0000*4A
$GPGSA,A,3,25,19,23,28,07,27,13,11,03,,,,1.6,0.8,1.2*39
$GPRMC,143231.818,A,2831.4764,N,08041.0065,W,0.07,109.60,211108,,*13
$GPGGA,143231.818,2831.4764,N,08041.0065,W,1,09,0.8,5.3,M,-31.2,M,0.0,0000*4A
$GPGSA,A,3,25,19,23,28,07,27,13,11,03,,,,1.6,0.8,1.2*39
$GPRMC,143232.818,A,2831.4765,N,08041.0066,W,0.08,19.66,211108,,*2B
$GPGGA,143232.818,2831.4765,N,08041.0066,W,1,09,0.8,4.3,M,-31.2,M,0.0,0000*4A
$GPGSA,A,3,25,19,23,28,07,27,13,11,03,,,,1.6,0.8,1.2*39
$GPRMC,143233.818,A,2831.4765,N,08041.0066,W,0.04,101.79,211108,,*10
$GPGGA,143233.818,2831.4765,N,08041.0066,W,1,09,0.8,3.1,M,-31.2,M,0.0,0000*4E
$GPGSA,A,3,25,19,23,28,07,27,13,11,03,,,,1.6,0.8,1.2*39
$GPRMC,143234.818,A,2831.4766,N,08041.0066,W,0.05,86.82,211108,,*2F
$GPGGA,143234.818,2831.4766,N,08041.0066,W,1,09,0.8,2.1,M,-31.2,M,0.0,0000*4B
$GPGSA,A,3,25,19,23,28,07,27,13,11,03,,,,1.6,0.8,1.2*39
$GPRMC,143236.818,A,2831.4765,N,08041.0067,W,0.10,136.04,211108,,*1F
$GPGGA,143236.818,2831.4765,N,08041.0067,W,1,10,0.8,2.3,M,-31.2,M,0.0,0000*41
$GPGSA,A,3,25,19,23,28,07,17,27,13,11,03,,,1.5,0.8,1.1*3F
$GPRMC,143237.818,A,2831.4764,N,08041.0068,W,0.14,118.73,211108,,*18
$GPGGA,143237.818,2831.4764,N,08041.0068,W,1,09,1.0,2.9,M,-31.2,M,0.0,0000*45
$GPGSA,A,3,25,19,23,28,07,17,27,13,03,,,,1.5,1.0,1.1*36
-31.2,M,0.0,0000*43
$GPGSA,A,3,25,19,23,28,07,17,27,13,11,03,,,1.5,0.8,1.1*3F
$GPRMC,143239.818,A,2831.4762,N,08041.0068,W,0.07,121.79,211108,,*12
$GPGGA,143239.818,2831.4762,N,08041.0068,W,1,10,0.8,4.9,M,-31.2,M,0.0,0000*4A
$GPGSA,A,3,25,19,23,28,07,17,27,13,11,03,,,1.5,0.8,1.1*3F
$GPRMC,143241.817,A,2831.4760,N,08041.0069,W,0.06,334.69,211108,,*17
$GPGGA,143241.817,2831.4760,N,08041.0069,W,1,07,1.6,7.0,M,-31.2,M,0.0,0000*4A
$GPGSA,A,3,25,19,07,27,13,11,03,,,,,,2.5,1.6,1.8*37
$GPRMC,143242.817,A,2831.4759,N,08041.0069,W,0.02,125.86,211108,,*19
$GPGGA,143242.817,2831.4759,N,08041.0069,W,1,09,1.0,7.8,M,-31.2,M,0.0,0000*43
$GPGSA,A,3,25,23,07,17,27,13,11,08,03,,,,1.6,1.0,1.2*3C
$GPRMC,143243.817,A,2831.4759,N,08041.0070,W,0.20,107.74,211108,,*1D
$GPGGA,143243.817,2831.4759,N,08041.0070,W,1,10,0.8,8.2,M,-31.2,M,0.0,0000*4E
$GPGSA,A,3,25,19,28,07,17,27,13,11,08,03,,,1.5,0.8,1.2*35
$GPRMC,143244.817,A,2831.4759,N,08041.0071,W,0.01,162.46,211108,,*1A
$GPGGA,143244.817,2831.4759,N,08041.0071,W,1,10,0.8,8.7,M,-31.2,M,0.0,0000*4D
$GPGSA,A,3,25,19,23,28,07,17,27,13,11,03,,,1.5,0.8,1.1*3F
$GPRMC,143247.817,A,2831.4761,N,08041.0079,W,0.08,121.66,211108,,*16
$GPGGA,143247.817,2831.4761,N,08041.0079,W,1,11,0.8,7.9,M,-31.2,M,0.0,0000*4D
$GPGSA,A,3,25,19,23,28,07,17,27,13,11,08,03,,1.4,0.8,1.1*36
$GPRMC,143248.817,A,2831.4760,N,08041.0082,W,0.08,117.13,211108,,*1B
$GPGGA,143248.817,2831.4760,N,08041.0082,W,1,11,0.8,6.8,M,-31.2,M,0.0,0000*47
$GPGSA,A,3,25,19,23,28,07,17,27,13,11,08,03,,1.4,0.8,1.1*36
$GPRMC,143249.817,A,2831.4759,N,08041.0085,W,0.07,95.85,211108,,*2C
$GPGGA,143249.817,2831.4759,N,08041.0085,W,1,10,0.8,5.5,M,-31.2,M,0.0,0000*44
$GPGSA,A,3,25,19,23,28,07,17,27,13,11,03,,,1.5,0.8,1.1*3F
$GPRMC,143251.817,A,2831.4761,N,08041.0092,W,0.08,81.66,211108,,*2F
$GPGGA,143251.817,2831.4761,N,08041.0092,W,1,11,0.8,3.2,M,-31.2,M,0.0,0000*40
$GPGSA,A,3,25,19,23,28,07,17,27,13,11,08,03,,1.4,0.8,1.1*36
$GPRMC,143252.817,A,2831.4764,N,08041.0096,W,0.08,84.42,211108,,*2E
$GPGGA,143252.817,2831.4764,N,08041.0096,W,1,11,0.8,2.7,M,-31.2,M,0.0,0000*46
$GPGSA,A,3,25,19,23,28,07,17,27,13,11,08,03,,1.4,0.8,1.1*36
$GPRMC,143253.817,A,2831.4768,N,08041.0101,W,0.06,104.40,211108,,*19
$GPGGA,143253.817,2831.4768,N,08041.0101,W,1,11,0.8,2.6,M,-31.2,M,0.0,0000*45
$GPGSA,A,3,25,19,23,28,07,17,27,13,11,08,03,,1.4,0.8,1.1*36
$GPRMC,143254.817,A,2831.4771,N,08041.0106,W,0.09,82.30,211108,,*26
$GPGGA,143254.817,2831.4771,N,08041.0106,W,1,11,0.8,2.6,M,-31.2,M,0.0,0000*4D
$GPGSA,A,3,25,19,23,28,07,17,27,13,11,08,03,,1.4,0.8,1.1*36
$GPRMC,143256.817,A,2831.4775,N,08041.0113,W,0.11,107.59,211108,,*1E
$GPGGA,143256.817,2831.4775,N,08041.0113,W,1,11,0.8,2.9,M,-31.2,M,0.0,0000*40
$GPGSA,A,3,25,19,23,28,07,17,27,13,11,08,03,,1.4,0.8,1.1*36
$GPRMC,143257.817,A,2831.4776,N,08041.0116,W,0.09,125.12,211108,,*1F
$GPGGA,143257.817,2831.4776,N,08041.0116,W,1,10,1.0,2.8,M,-31.2,M,0.0,0000*4E
$GPGSA,A,3,25,19,23,07,17,27,13,11,08,03,,,1.6,1.0,1.2*34
$GPRMC,143258.816,A,2831.4777,N,08041.0118,W,0.10,122.61,211108,,*15
$GPGGA,143258.816,2831.4777,N,08041.0118,W,1,10,1.0,2.3,M,-31.2,M,0.0,0000*44
$GPGSA,A,3,25,19,23,07,17,27,13,11,08,03,,,1.6,1.0,1.2*34
$GPRMC,143259.816,A,2831.4776,N,08041.0119,W,0.09,122.76,211108,,*1A
$GPGGA,143259.816,2831.4776,N,08041.0119,W,1,10,1.0,1.8,M,-31.2,M,0.0,0000*4D
$GPGSA,A,3,25,19,23,07,17,27,13,11,08,03,,,1.6,1.0,1.2*34
$GPRMC,143301.816,A,2831.4775,N,08041.0121,W,0.07,114.03,211108,,*17
$GPGGA,143301.816,2831.4775,N,08041.0121,W,1,10,0.8,0.4,M,-31.2,M,0.0,0000*4D
$GPGSA,A,3,25,19,28,07,17,27,13,11,08,03,,,1.5,0.8,1.2*35
$GPRMC,143302.816,A,2831.4773,N,08041.0121,W,0.07,133.16,211108,,*13
$GPGGA,143302.816,2831.4773,N,08041.0121,W,1,08,1.0,-0.3,M,-31.2,M,0.0,0000*62
$GPGSA,A,3,25,19,28,17,27,13,11,03,,,,,1.7,1.0,1.3*30
$GPRMC,143303.816,A,2831.4769,N,08041.0120,W,0.20,125.13,211108,,*1F
$GPGGA,143303.816,2831.4769,N,08041.0120,W,1,10,0.8,-0.7,M,-31.2,M,0.0,0000*6D
$GPGSA,A,3,25,19,28,07,17,27,13,11,08,03,,,1.5,0.8,1.2*35
$GPRMC,143304.816,A,2831.4765,N,08041.0119,W,0.07,134.62,211108,,*1D
$GPGGA,143304.816,2831.4765,N,08041.0119,W,1,10,0.8,-0.3,M,-31.2,M,0.0,0000*68
$GPGSA,A,3,25,19,28,07,17,27,13,11,08,03,,,1.5,0.8,1.2*35
$GPRMC,143306.816,A,2831.4760,N,08041.0116,W,0.15,111.44,211108,,*15
$GPGGA,143306.816,2831.4760,N,08041.0116,W,1,08,1.0,1.0,M,-31.2,M,0.0,0000*4F
$GPGSA,A,3,25,19,17,27,13,11,08,03,,,,,1.7,1.0,1.4*35
$GPRMC,143307.816,A,2831.4758,N,08041.0114,W,0.19,123.61,211108,,*17
$GPGGA,143307.816,2831.4758,N,08041.0114,W,1,10,0.8,1.7,M,-31.2,M,0.0,0000*40
$GPGSA,A,3,25,19,28,07,17,27,13,11,08,03,,,1.5,0.8,1.2*35
$GPRMC,143308.816,A,2831.4757,N,08041.0111,W,0.05,97.70,211108,,*21
$GPGGA,143308.816,2831.4757,N,08041.0111,W,1,09,1.0,2.5,M,-31.2,M,0.0,0000*45
$GPGSA,A,3,25,19,28,07,27,13,11,08,03,,,,1.7,1.0,1.4*3E
$GPRMC,143309.816,A,2831.4756,N,08041.0109,W,0.11,84.24,211108,,*2E
$GPGGA,143309.816,2831.4756,N,08041.0109,W,1,07,1.2,3.3,M,-31.2,M,0.0,0000*47
$GPGSA,A,3,25,28,07,27,11,08,03,,,,,,2.1,1.2,1.6*31
$GPRMC,143311.816,A,2831.4755,N,08041.0105,W,0.31,42.85,211108,,*2B
$GPGGA,143311.816,2831.4755,N,08041.0105,W,1,06,3.2,4.7,M,-31.2,M,0.0,0000*41
$GPGSA,A,3,19,28,07,27,08,03,,,,,,,3.9,3.2,2.0*30
-31.2,M,0.0,0000*4F
$GPGSA,A,3,25,19,28,07,17,27,08,03,,,,,1.7,1.2,1.2*3E
$GPRMC,143313.816,A,2831.4756,N,08041.0099,W,0.14,98.56,211108,,*20
$GPGGA,143313.816,2831.4756,N,08041.0099,W,1,10,0.8,5.9,M,-31.2,M,0.0,0000*45
$GPGSA,A,3,19,23,28,07,17,27,13,11,08,03,,,1.5,0.8,1.2*33
$GPRMC,143314.816,A,2831.4758,N,08041.0097,W,0.10,94.33,211108,,*2C
$GPGGA,143314.816,2831.4758,N,08041.0097,W,1,11,0.8,5.8,M,-31.2,M,0.0,0000*42
$GPGSA,A,3,25,19,23,28,07,17,27,13,11,08,03,,1.4,0.8,1.1*36
$GPRMC,143316.815,A,2831.4761,N,08041.0094,W,0.06,80.83,211108,,*2D
$GPGGA,143316.815,2831.4761,N,08041.0094,W,1,08,0.8,4.4,M,-31.2,M,0.0,0000*4F
$GPGSA,A,3,19,23,28,07,27,11,08,03,,,,,1.7,0.8,1.3*34
$GPRMC,143317.815,A,2831.4761,N,08041.0091,W,0.13,103.36,211108,,*19
$GPGGA,143317.815,2831.4761,N,08041.0091,W,1,07,1.2,3.3,M,-31.2,M,0.0,0000*4F
$GPGSA,A,3,19,28,07,27,11,08,03,,,,,,2.1,1.2,1.6*3E
$GPRMC,143318.815,A,2831.4761,N,08041.0088,W,0.15,120.75,211108,,*1E
$GPGGA,143318.815,2831.4761,N,08041.0088,W,1,06,3.2,2.1,M,-31.2,M,0.0,0000*48
$GPGSA,A,3,19,28,07,27,08,03,,,,,,,3.9,3.2,2.0*30
$GPRMC,143319.815,A,2831.4762,N,08041.0085,W,0.16,136.38,211108,,*1C
$GPGGA,143319.815,2831.4762,N,08041.0085,W,1,07,1.0,0.7,M,-31.2,M,0.0,0000*42
$GPGSA,A,3,19,28,07,27,13,08,03,,,,,,1.9,1.0,1.5*36
$GPRMC,143321.815,A,2831.4762,N,08041.0082,W,0.38,155.52,211108,,*15
$GPGGA,143321.815,2831.4762,N,08041.0082,W,1,07,1.0,-0.6,M,-31.2,M,0.0,0000*62
$GPGSA,A,3,19,28,17,27,11,08,03,,,,,,1.8,1.0,1.5*34
$GPRMC,143322.815,A,2831.4759,N,08041.0081,W,0.20,100.40,211108,,*17
$GPGGA,143322.815,2831.4759,N,08041.0081,W,1,08,1.0,-0.9,M,-31.2,M,0.0,0000*6A
$GPGSA,A,3,19,28,07,17,27,11,08,03,,,,,1.7,1.0,1.3*3A
$GPRMC,143323.815,A,2831.4757,N,08041.0080,W,0.40,193.13,211108,,*13
$GPGGA,143323.815,2831.4757,N,08041.0080,W,1,05,4.2,-1.0,M,-31.2,M,0.0,0000*66
$GPGSA,A,3,19,28,27,08,03,,,,,,,,4.7,4.2,2.0*39
$GPRMC,143324.815,A,2831.4754,N,08041.0078,W,0.79,38.55,211108,,*28
$GPGGA,143324.815,2831.4754,N,08041.0078,W,1,06,1.4,-0.9,M,-31.2,M,0.0,0000*6D
$GPGSA,A,3,19,28,27,13,11,08,,,,,,,3.6,1.4,3.3*3F
-31.2,M,0.0,0000*43
$GPGSA,A,3,25,19,28,07,17,27,13,11,08,03,,,1.5,0.8,1.2*35
$GPRMC,143327.815,A,2831.4747,N,08041.0070,W,0.17,125.88,211108,,*14
$GPGGA,143327.815,2831.4747,N,08041.0070,W,1,09,1.0,1.2,M,-31.2,M,0.0,0000*48
$GPGSA,A,3,25,19,28,07,27,13,11,08,03,,,,1.7,1.0,1.4*3E
-31.2,M,0.0,0000*49
$GPGSA,A,3,25,19,28,07,27,13,11,08,03,,,,1.7,1.0,1.4*3E
$GPRMC,143329.815,A,2831.4744,N,08041.0067,W,0.10,151.94,211108,,*16
$GPGGA,143329.815,2831.4744,N,08041.0067,W,1,09,1.0,2.3,M,-31.2,M,0.0,0000*41
$GPGSA,A,3,25,19,28,07,27,13,11,08,03,,,,1.7,1.0,1.4*3E
$GPRMC,143331.814,A,2831.4744,N,08041.0065,W,0.28,278.53,211108,,*14
$GPGGA,143331.814,2831.4744,N,08041.0065,W,1,08,1.0,4.0,M,-31.2,M,0.0,0000*4F
$GPGSA,A,3,25,19,28,07,27,13,08,03,,,,,1.8,1.0,1.4*31
$GPRMC,143332.814,A,2831.4749,N,08041.0068,W,1.06,351.62,211108,,*12
$GPGGA,143332.814,2831.4749,N,08041.0068,W,1,09,1.4,4.8,M,-31.2,M,0.0,0000*41
$GPGSA,A,3,25,19,28,07,17,27,13,11,08,,,,2.5,1.4,2.1*38
$GPRMC,143333.814,A,2831.4754,N,08041.0070,W,0.25,89.23,211108,,*25
$GPGGA,143333.814,2831.4754,N,08041.0070,W,1,09,1.4,5.6,M,-31.2,M,0.0,0000*4A
$GPGSA,A,3,25,19,28,07,17,27,13,11,08,,,,2.5,1.4,2.1*38
$GPRMC,143334.814,A,2831.4756,N,08041.0071,W,0.15,117.70,211108,,*12
$GPGGA,143334.814,2831.4756,N,08041.0071,W,1,07,1.6,6.3,M,-31.2,M,0.0,0000*44
$GPGSA,A,3,19,28,07,17,27,13,08,,,,,,2.8,1.6,2.2*33
$GPRMC,143336.814,A,2831.4758,N,08041.0072,W,0.24,201.35,211108,,*1A
$GPGGA,143336.814,2831.4758,N,08041.0072,W,1,02,0.0,6.6,M,-31.2,M,0.0,0000*4C
$GPGSA,A,2,17,03,,,,,,,,,,,0.0,0.0,0.0*36
$GPRMC,143337.814,A,2831.4760,N,08041.0073,W,0.13,122.00,211108,,*11
$GPGGA,143337.814,2831.4760,N,08041.0073,W,1,07,1.6,6.6,M,-31.2,M,0.0,0000*45
$GPGSA,A,3,25,19,28,07,27,13,08,,,,,,3.0,1.6,2.4*3D
$GPRMC,143338.814,A,2831.4759,N,08041.0072,W,0.08,129.39,211108,,*1E
$GPGGA,143338.814,2831.4759,N,08041.0072,W,1,07,1.6,6.9,M,-31.2,M,0.0,0000*4E
$GPGSA,A,3,25,19,28,07,27,13,08,,,,,,3.0,1.6,2.4*3D
-31.2,M,0.0,0000*43
$GPGSA,A,3,25,19,28,07,27,13,08,03,,,,,1.8,1.0,1.4*31
-31.2,M,0.0,0000*4B
$GPGSA,A,3,25,19,28,07,27,13,11,08,03,,,,1.7,1.0,1.4*3E
$GPRMC,143342.814,A,2831.4772,N,08041.0075,W,0.03,317.70,211108,,*14
$GPGGA,143342.814,2831.4772,N,08041.0075,W,1,09,1.0,6.8,M,-31.2,M,0.0,0000*44
$GPGSA,A,3,25,19,28,07,27,13,11,08,03,,,,1.7,1.0,1.4*3E
$GPRMC,143343.814,A,2831.4774,N,08041.0077,W,0.06,81.34,211108,,*28
$GPGGA,143343.814,2831.4774,N,08041.0077,W,1,09,1.0,6.3,M,-31.2,M,0.0,0000*4A
$GPGSA,A,3,25,19,28,07,27,13,11,08,03,,,,1.7,1.0,1.4*3E
$GPRMC,143344.814,A,2831.4774,N,08041.0078,W,0.10,110.09,211108,,*10
$GPGGA,143344.814,2831.4774,N,08041.0078,W,1,09,1.0,5.3,M,-31.2,M,0.0,0000*41
$GPGSA,A,3,25,19,28,07,27,13,11,08,03,,,,1.7,1.0,1.4*3E
$GPRMC,143346.814,A,2831.4771,N,08041.0079,W,0.11,243.12,211108,,*18
$GPGGA,143346.814,2831.4771,N,08041.0079,W,1,09,1.0,4.2,M,-31.2,M,0.0,0000*47
$GPGSA,A,3,25,19,28,07,27,13,11,08,03,,,,1.7,1.0,1.4*3E
$GPRMC,143347.814,A,2831.4770,N,08041.0081,W,0.09,113.85,211108,,*1E
$GPGGA,143347.814,2831.4770,N,08041.0081,W,1,09,1.0,3.9,M,-31.2,M,0.0,0000*4C
$GPGSA,A,3,25,19,28,07,27,13,11,08,03,,,,1.7,1.0,1.4*3E
$GPRMC,143348.813,A,2831.4768,N,08041.0081,W,0.18,90.31,211108,,*2A
$GPGGA,143348.813,2831.4768,N,08041.0081,W,1,09,1.0,3.8,M,-31.2,M,0.0,0000*4C
$GPGSA,A,3,25,19,28,07,27,13,11,08,03,,,,1.7,1.0,1.4*3E
$GPRMC,143349.813,A,2831.4767,N,08041.0082,W,0.29,197.85,211108,,*1C
$GPGGA,143349.813,2831.4767,N,08041.0082,W,1,10,0.8,4.3,M,-31.2,M,0.0,0000*4C
$GPGSA,A,3,25,19,28,07,17,27,13,11,08,03,,,1.5,0.8,1.2*35
$GPRMC,143351.813,A,2831.4767,N,08041.0082,W,0.03,179.77,211108,,*10
$GPGGA,143351.813,2831.4767,N,08041.0082,W,1,08,1.4,5.7,M,-31.2,M,0.0,0000*44
$GPGSA,A,3,25,19,28,07,27,13,11,08,,,,,2.7,1.4,2.3*3E
$GPRMC,143352.813,A,2831.4769,N,08041.0081,W,0.18,179.95,211108,,*18
$GPGGA,143352.813,2831.4769,N,08041.0081,W,1,09,1.0,6.8,M,-31.2,M,0.0,0000*43
$GPGSA,A,3,25,19,28,07,27,13,11,08,03,,,,1.7,1.0,1.4*3E
$GPRMC,143353.813,A,2831.4771,N,08041.0080,W,0.07,134.71,211108,,*1C
$GPGGA,143353.813,2831.4771,N,08041.0080,W,1,08,1.4,7.6,M,-31.2,M,0.0,0000*40
$GPGSA,A,3,25,19,28,07,27,13,11,08,,,,,2.7,1.4,2.3*3E
$GPRMC,143354.813,A,2831.4773,N,08041.0078,W,0.10,112.38,211108,,*11
$GPGGA,143354.813,2831.4773,N,08041.0078,W,1,09,1.0,8.2,M,-31.2,M,0.0,0000*4C
$GPGSA,A,3,25,19,28,07,27,13,11,08,03,,,,1.7,1.0,1.4*3E
$GPRMC,143356.813,A,2831.4771,N,08041.0075,W,0.07,122.70,211108,,*15
$GPGGA,143356.813,2831.4771,N,08041.0075,W,1,10,0.8,8.0,M,-31.2,M,0.0,0000*42
$GPGSA,A,3,25,19,23,28,07,27,13,11,08,03,,,1.5,0.8,1.2*32
$GPRMC,143357.813,A,2831.4770,N,08041.0074,W,0.09,116.01,211108,,*1B
$GPGGA,143357.813,2831.4770,N,08041.0074,W,1,10,0.8,7.6,M,-31.2,M,0.0,0000*4A
$GPGSA,A,3,25,19,23,28,07,27,13,11,08,03,,,1.5,0.8,1.2*32
$GPRMC,143358.813,A,2831.4768,N,08041.0073,W,0.08,125.08,211108,,*12
$GPGGA,143358.813,2831.4768,N,08041.0073,W,1,10,0.8,6.6,M,-31.2,M,0.0,0000*4A
$GPGSA,A,3,25,19,23,28,07,27,13,11,08,03,,,1.5,0.8,1.2*32
$GPRMC,143359.813,A,2831.4768,N,08041.0074,W,0.12,121.45,211108,,*12
$GPGGA,143359.813,2831.4768,N,08041.0074,W,1,10,0.8,5.4,M,-31.2,M,0.0,0000*4D
$GPGSA,A,3,25,19,23,28,07,27,13,11,08,03,,,1.5,0.8,1.2*32
$GPRMC,143401.813,A,2831.4767,N,08041.0075,W,0.17,143.10,211108,,*17
$GPGGA,143401.813,2831.4767,N,08041.0075,W,1,08,1.2,4.1,M,-31.2,M,0.0,0000*4F
$GPGSA,A,3,25,19,28,07,27,11,08,03,,,,,2.0,1.2,1.6*38
$GPRMC,143402.813,A,2831.4766,N,08041.0075,W,0.16,147.97,211108,,*1F
$GPGGA,143402.813,2831.4766,N,08041.0075,W,1,08,1.0,3.8,M,-31.2,M,0.0,0000*41
$GPGSA,A,3,25,19,28,07,27,13,08,03,,,,,1.8,1.0,1.4*31
$GPRMC,143403.813,A,2831.4766,N,08041.0075,W,0.20,5.87,211108,,*1D
$GPGGA,143403.813,2831.4766,N,08041.0075,W,1,09,1.0,3.6,M,-31.2,M,0.0,0000*4F
$GPGSA,A,3,25,19,28,07,27,13,11,08,03,,,,1.7,1.0,1.4*3E
$GPRMC,143404.812,A,2831.4766,N,08041.0075,W,0.12,95.02,211108,,*2E
$GPGGA,143404.812,2831.4766,N,08041.0075,W,1,08,1.0,3.6,M,-31.2,M,0.0,0000*48
$GPGSA,A,3,25,19,28,07,27,13,08,03,,,,,1.8,1.0,1.4*31
$GPRMC,143406.812,A,2831.4765,N,08041.0076,W,0.12,113.43,211108,,*16
$GPGGA,143406.812,2831.4765,N,08041.0076,W,1,07,2.0,3.8,M,-31.2,M,0.0,0000*48
$GPGSA,A,3,25,19,28,07,27,08,03,,,,,,2.8,2.0,1.9*3E
$GPRMC,143407.812,A,2831.4767,N,08041.0076,W,0.11,90.63,211108,,*2E
$GPGGA,143407.812,2831.4767,N,08041.0076,W,1,08,1.0,4.8,M,-31.2,M,0.0,0000*40
$GPGSA,A,3,25,19,28,07,27,13,08,03,,,,,1.8,1.0,1.4*31
$GPRMC,143408.812,A,2831.4770,N,08041.0076,W,0.09,132.94,211108,,*1F
$GPGGA,143408.812,2831.4770,N,08041.0076,W,1,08,1.0,5.6,M,-31.2,M,0.0,0000*46
$GPGSA,A,3,25,19,28,07,27,13,08,03,,,,,1.8,1.0,1.4*31
$GPRMC,143409.812,A,2831.4771,N,08041.0077,W,0.10,162.74,211108,,*1D
$GPGGA,143409.812,2831.4771,N,08041.0077,W,1,07,2.0,6.1,M,-31.2,M,0.0,0000*4F
$GPGSA,A,3,25,19,28,07,27,08,03,,,,,,2.8,2.0,1.9*3E
$GPRMC,143411.812,A,2831.4771,N,08041.0079,W,0.12,64.16,211108,,*2B
$GPGGA,143411.812,2831.4771,N,08041.0079,W,1,08,1.2,6.2,M,-31.2,M,0.0,0000*45
$GPGSA,A,3,25,19,28,07,27,11,08,03,,,,,2.0,1.2,1.6*38
$GPRMC,143412.812,A,2831.4771,N,08041.0079,W,0.09,84.73,211108,,*2F
$GPGGA,143412.812,2831.4771,N,08041.0079,W,1,11,0.8,6.4,M,-31.2,M,0.0,0000*43
$GPGSA,A,3,25,19,23,28,07,17,27,13,11,08,03,,1.4,0.8,1.1*36
$GPRMC,143413.812,A,2831.4770,N,08041.0079,W,0.11,84.97,211108,,*2C
$GPGGA,143413.812,2831.4770,N,08041.0079,W,1,09,1.0,6.7,M,-31.2,M,0.0,0000*40
$GPGSA,A,3,25,19,07,17,27,13,11,08,03,,,,1.6,1.0,1.2*35
$GPRMC,143414.812,A,2831.4769,N,08041.0078,W,0.09,85.03,211108,,*27
$GPGGA,143414.812,2831.4769,N,08041.0078,W,1,09,1.0,6.9,M,-31.2,M,0.0,0000*40
$GPGSA,A,3,25,19,07,17,27,13,11,08,03,,,,1.6,1.0,1.2*35
$GPRMC,143416.812,A,2831.4765,N,08041.0077,W,0.17,112.76,211108,,*14
$GPGGA,143416.812,2831.4765,N,08041.0077,W,1,09,1.0,6.8,M,-31.2,M,0.0,0000*40
$GPGSA,A,3,25,19,07,17,27,13,11,08,03,,,,1.6,1.0,1.2*35
$GPRMC,143417.812,A,2831.4762,N,08041.0076,W,0.14,109.06,211108,,*1D
$GPGGA,143417.812,2831.4762,N,08041.0076,W,1,09,1.0,6.3,M,-31.2,M,0.0,0000*4C
$GPGSA,A,3,25,19,07,17,27,13,11,08,03,,,,1.6,1.0,1.2*35
$GPRMC,143418.812,A,2831.4760,N,08041.0076,W,0.13,116.58,211108,,*12
$GPGGA,143418.812,2831.4760,N,08041.0076,W,1,09,1.0,5.9,M,-31.2,M,0.0,0000*48
$GPGSA,A,3,25,19,07,17,27,13,11,08,03,,,,1.6,1.0,1.2*35
$GPRMC,143421.811,A,2831.4755,N,08041.0073,W,0.17,84.75,211108,,*29
$GPGGA,143421.811,2831.4755,N,08041.0073,W,1,11,0.8,5.7,M,-31.2,M,0.0,0000*4C
$GPGSA,A,3,25,19,23,28,07,17,27,13,11,08,03,,1.4,0.8,1.1*36
$GPRMC,143422.811,A,2831.4755,N,08041.0072,W,0.11,88.58,211108,,*2E
$GPGGA,143422.811,2831.4755,N,08041.0072,W,1,10,0.8,5.5,M,-31.2,M,0.0,0000*4D
$GPGSA,A,3,25,19,28,07,17,27,13,11,08,03,,,1.5,0.8,1.2*35
$GPRMC,143423.811,A,2831.4754,N,08041.0071,W,0.07,106.37,211108,,*14
$GPGGA,143423.811,2831.4754,N,08041.0071,W,1,11,0.8,5.2,M,-31.2,M,0.0,0000*48
$GPGSA,A,3,25,19,23,28,07,17,27,13,11,08,03,,1.4,0.8,1.1*36
$GPRMC,143424.811,A,2831.4755,N,08041.0071,W,0.12,115.33,211108,,*10
$GPGGA,143424.811,2831.4755,N,08041.0071,W,1,11,0.8,5.0,M,-31.2,M,0.0,0000*4C
$GPGSA,A,3,25,19,23,28,07,17,27,13,11,08,03,,1.4,0.8,1.1*36
$GPRMC,143426.811,A,2831.4755,N,08041.0073,W,0.13,137.96,211108,,*1E
$GPGGA,143426.811,2831.4755,N,08041.0073,W,1,10,0.8,4.4,M,-31.2,M,0.0,0000*48
$GPGSA,A,3,25,19,23,28,07,27,13,11,08,03,,,1.5,0.8,1.2*32
$GPRMC,143427.811,A,2831.4755,N,08041.0075,W,0.08,138.76,211108,,*12
$GPGGA,143427.811,2831.4755,N,08041.0075,W,1,09,1.0,4.6,M,-31.2,M,0.0,0000*4C
$GPGSA,A,3,25,19,28,07,27,13,11,08,03,,,,1.7,1.0,1.4*3E
$GPRMC,143428.811,A,2831.4756,N,08041.0077,W,0.07,125.24,211108,,*18
$GPGGA,143428.811,2831.4756,N,08041.0077,W,1,09,1.0,4.9,M,-31.2,M,0.0,0000*4D
$GPGSA,A,3,25,19,28,07,27,13,11,08,03,,,,1.7,1.0,1.4*3E
$GPRMC,143429.811,A,2831.4757,N,08041.0079,W,0.08,86.06,211108,,*21
$GPGGA,143429.811,2831.4757,N,08041.0079,W,1,09,1.0,5.4,M,-31.2,M,0.0,0000*4F
$GPGSA,A,3,25,19,28,07,27,13,11,08,03,,,,1.7,1.0,1.4*3E
$GPRMC,143431.811,A,2831.4761,N,08041.0084,W,0.05,63.60,211108,,*29
$GPGGA,143431.811,2831.4761,N,08041.0084,W,1,08,1.2,6.1,M,-31.2,M,0.0,0000*44
$GPGSA,A,3,25,19,28,07,27,11,08,03,,,,,2.0,1.2,1.6*38
$GPRMC,143432.811,A,2831.4763,N,08041.0086,W,0.08,77.71,211108,,*22
$GPRMC,143433.811,A,2831.4765,N,08041.0088,W,0.13,58.89,211108,,*2B
$GPGGA,143433.811,2831.4765,N,08041.0088,W,1,08,1.2,6.6,M,-31.2,M,0.0,0000*49
$GPGSA,A,3,25,19,28,07,27,11,08,03,,,,,2.0,1.2,1.6*38
$GPRMC,143434.811,A,2831.4768,N,08041.0089,W,0.12,60.69,211108,,*24
$GPGGA,143434.811,2831.4768,N,08041.0089,W,1,08,1.2,6.9,M,-31.2,M,0.0,0000*4D
$GPGSA,A,3,25,19,28,07,27,11,08,03,,,,,2.0,1.2,1.6*38
$GPRMC,143436.811,A,2831.4773,N,08041.0091,W,0.12,63.69,211108,,*26
$GPGGA,143436.811,2831.4773,N,08041.0091,W,1,06,1.8,7.1,M,-31.2,M,0.0,0000*41
$GPGSA,A,3,25,19,07,27,11,08,,,,,,,3.7,1.8,3.2*3B
$GPRMC,143437.810,A,2831.4775,N,08041.0091,W,0.14,74.03,211108,,*2C
$GPGGA,143437.810,2831.4775,N,08041.0091,W,1,06,1.8,7.4,M,-31.2,M,0.0,0000*42
$GPGSA,A,3,25,19,07,27,11,08,,,,,,,3.7,1.8,3.2*3B
$GPRMC,143438.810,A,2831.4777,N,08041.0091,W,0.30,79.02,211108,,*2B
$GPGGA,143438.810,2831.4777,N,08041.0091,W,1,07,1.6,7.7,M,-31.2,M,0.0,0000*43
$GPGSA,A,3,25,19,28,07,27,11,08,,,,,,2.9,1.6,2.4*37
$GPRMC,143439.810,A,2831.4779,N,08041.0090,W,0.11,61.07,211108,,*2A
$GPGGA,143439.810,2831.4779,N,08041.0090,W,1,07,1.6,7.7,M,-31.2,M,0.0,0000*4D
$GPGSA,A,3,25,19,28,07,27,11,08,,,,,,2.9,1.6,2.4*37
-31.2,M,0.0,0000*49
$GPGSA,A,3,25,19,28,07,27,13,11,08,,,,,2.7,1.4,2.3*3E
$GPRMC,143442.810,A,2831.4776,N,08041.0093,W,0.10,244.80,211108,,*11
$GPGGA,143442.810,2831.4776,N,08041.0093,W,1,09,1.0,7.4,M,-31.2,M,0.0,0000*46
$GPGSA,A,3,25,19,28,07,27,13,11,08,03,,,,1.7,1.0,1.4*3E
$GPRMC,143443.810,A,2831.4775,N,08041.0093,W,0.12,68.50,211108,,*20
$GPGGA,143443.810,2831.4775,N,08041.0093,W,1,09,1.0,7.9,M,-31.2,M,0.0,0000*49
$GPGSA,A,3,25,19,28,07,27,13,11,08,03,,,,1.7,1.0,1.4*3E
$GPRMC,143444.810,A,2831.4773,N,08041.0091,W,0.15,66.57,1,W,1,08,1.2,8.1,M,-31.2,M,0.0,0000*4E
$GPGSA,A,3,25,19,28,07,27,11,08,03,,,,,2.0,1.2,1.6*38
$GPRMC,143446.810,A,2831.4772,N,08041.0087,W,0.15,77.47,211108,,*28
$GPGGA,143446.810,2831.4772,N,08041.0087,W,1,07,1.6,7.9,M,-31.2,M,0.0,0000*46
$GPGSA,A,3,25,19,07,27,11,08,03,,,,,,3.0,1.6,2.4*36
$GPRMC,143447.810,A,2831.4772,N,08041.0085,W,0.12,73.10,211108,,*2A
$GPGGA,143447.810,2831.4772,N,08041.0085,W,1,09,1.0,7.2,M,-31.2,M,0.0,0000*46
$GPGSA,A,3,25,19,28,07,27,13,11,08,03,,,,1.7,1.0,1.4*3E
$GPRMC,143448.810,A,2831.4772,N,08041.0083,W,0.07,73.42,211108,,*20
$GPGGA,143448.810,2831.4772,N,08041.0083,W,1,09,1.0,7.0,M,-31.2,M,0.0,0000*4D
$GPGSA,A,3,25,19,28,07,27,13,11,08,03,,,,1.7,1.0,1.4*3E
$GPRMC,143449.810,A,2831.4772,N,08041.0081,W,0.08,79.02,211108,,*22
$GPGGA,143449.810,2831.4772,N,08041.0081,W,1,07,1.2,6.7,M,-31.2,M,0.0,0000*44
$GPGSA,A,3,25,28,07,27,11,08,03,,,,,,2.1,1.2,1.6*31
31.2,M,0.0,0000*42
$GPGSA,A,3,25,19,28,07,27,11,08,03,,,,,2.0,1.2,1.6*38
$GPRMC,143452.810,A,2831.4774,N,08041.0077,W,0.14,69.80,211108,,*21
$GPGGA,143452.810,2831.4774,N,08041.0077,W,1,08,1.2,4.5,M,-31.2,M,0.0,0000*4E
$GPGSA,A,3,25,19,28,07,27,11,08,03,,,,,2.0,1.2,1.6*38
$GPRMC,143453.810,A,2831.4775,N,08041.0077,W,0.10,62.29,211108,,*2D
$GPGGA,143453.810,2831.4775,N,08041.0077,W,1,07,1.6,3.8,M,-31.2,M,0.0,0000*4F
$GPGSA,A,3,25,19,07,27,11,08,03,,,,,,3.0,1.6,2.4*36
$GPRMC,143454.809,A,2831.4775,N,08041.0078,W,0.13,64.85,211108,,*2E
$GPGGA,143454.809,2831.4775,N,08041.0078,W,1,06,1.8,2.9,M,-31.2,M,0.0,0000*40
$GPGSA,A,3,25,19,07,27,11,08,,,,,,,3.7,1.8,3.2*3B
31.2,M,0.0,0000*49
$GPGSA,A,3,25,19,07,27,13,11,08,03,,,,,2.0,1.2,1.6*30
$GPRMC,143457.809,A,2831.4775,N,08041.0081,W,0.05,83.72,211108,,*2D
$GPGGA,143457.809,2831.4775,N,08041.0081,W,1,08,1.2,2.1,M,-31.2,M,0.0,0000*49
$GPGSA,A,3,25,19,07,27,13,11,08,03,,,,,2.0,1.2,1.6*30
$GPRMC,143458.809,A,2831.4776,N,08041.0082,W,0.08,95.33,211108,,*2D
$GPGGA,143458.809,2831.4776,N,08041.0082,W,1,08,1.2,1.9,M,-31.2,M,0.0,0000*4D
$GPGSA,A,3,25,19,07,27,13,11,08,03,,,,,2.0,1.2,1.6*30
-31.2,M,0.0,0000*46
$GPGSA,A,3,25,19,07,27,13,11,08,03,,,,,2.0,1.2,1.6*30
$GPRMC,143501.809,A,2831.4778,N,08041.0085,W,0.17,168.32,211108,,*15
$GPGGA,143501.809,2831.4778,N,08041.0085,W,1,09,1.0,-0.3,M,-31.2,M,0.0,0000*6C
$GPGSA,A,3,25,19,23,07,27,13,11,08,03,,,,1.8,1.0,1.3*3D
$GPRMC,143502.809,A,2831.4778,N,08041.0085,W,0.07,119.61,211108,,*17
$GPGGA,143502.809,2831.4778,N,08041.0085,W,1,08,1.2,-1.2,M,-31.2,M,0.0,0000*6C
$GPGSA,A,3,25,19,07,27,13,11,08,03,,,,,2.0,1.2,1.6*30
,-31.2,M,0.0,0000*6E
$GPGSA,A,3,25,19,07,27,13,11,08,03,,,,,2.0,1.2,1.6*30
$GPRMC,143504.809,A,2831.4778,N,08041.0086,W,0.08,108.24,211108,,*1C
$GPGGA,143504.809,2831.4778,N,08041.0086,W,1,08,1.2,-2.4,M,-31.2,M,0.0,0000*6C
$GPGSA,A,3,25,19,07,27,13,11,08,03,,,,,2.0,1.2,1.6*30
$GPRMC,143506.809,A,2831.4776,N,08041.0086,W,0.04,93.42,211108,,*2F
$GPGGA,143506.809,2831.4776,N,08041.0086,W,1,07,1.2,-2.3,M,-31.2,M,0.0,0000*68
$GPGSA,A,3,19,07,27,13,11,08,03,,,,,,2.2,1.2,1.8*3B
$GPRMC,143507.809,A,2831.4774,N,08041.0086,W,0.09,107.14,211108,,*1E
$GPGGA,143507.809,2831.4774,N,08041.0086,W,1,08,1.2,-1.7,M,-31.2,M,0.0,0000*63
$GPGSA,A,3,25,19,07,27,13,11,08,03,,,,,2.0,1.2,1.6*30
$GPRMC,143508.809,A,2831.4772,N,08041.0086,W,0.09,88.84,211108,,*28
$GPGGA,143508.809,2831.4772,N,08041.0086,W,1,08,1.2,-1.1,M,-31.2,M,0.0,0000*6C
$GPGSA,A,3,25,19,07,27,13,11,08,03,,,,,2.0,1.2,1.6*30
$GPRMC,143509.809,A,2831.4770,N,08041.0087,W,0.13,73.74,211108,,*2A
$GPGGA,143509.809,2831.4770,N,08041.0087,W,1,07,1.6,-0.4,M,-31.2,M,0.0,0000*61
$GPGSA,A,3,25,19,07,27,11,08,03,,,,,,3.0,1.6,2.4*36
$GPRMC,143511.808,A,2831.4767,N,08041.0087,W,0.15,70.50,211108,,*27
$GPGGA,143511.808,2831.4767,N,08041.0087,W,1,06,1.6,1.1,M,-31.2,M,0.0,0000*47
$GPGSA,A,3,19,07,27,11,08,03,,,,,,,3.1,1.6,2.6*32
$GPRMC,143512.808,A,2831.4766,N,08041.0087,W,0.10,78.99,211108,,*2D
$GPGGA,143512.808,2831.4766,N,08041.0087,W,1,07,1.6,2.0,M,-31.2,M,0.0,0000*46
$GPGSA,A,3,25,19,07,27,11,08,03,,,,,,3.0,1.6,2.4*36
$GPRMC,143513.808,A,2831.4765,N,08041.0088,W,0.14,60.81,211108,,*24
$GPGGA,143513.808,2831.4765,N,08041.0088,W,1,07,1.6,3.1,M,-31.2,M,0.0,0000*4B
$GPGSA,A,3,25,19,07,27,11,08,03,,,,,,3.0,1.6,2.4*36
$GPRMC,143514.808,A,2831.4764,N,08041.0089,W,0.09,71.88,211108,,*26
$GPGGA,143514.808,2831.4764,N,08041.0089,W,1,08,1.2,4.3,M,-31.2,M,0.0,0000*42
$GPGSA,A,3,25,19,23,07,27,11,08,03,,,,,1.8,1.2,1.3*3D
$GPRMC,143516.808,A,2831.4763,N,08041.0089,W,0.14,73.73,211108,,*29
$GPGGA,143516.808,2831.4763,N,08041.0089,W,1,08,1.2,6.9,M,-31.2,M,0.0,0000*4F
$GPGSA,A,3,25,19,28,07,27,11,08,03,,,,,2.0,1.2,1.6*38
$GPRMC,143517.808,A,2831.4762,N,08041.0090,W,0.14,84.82,211108,,*27
$GPGGA,143517.808,2831.4762,N,08041.0090,W,1,07,1.6,7.9,M,-31.2,M,0.0,0000*4D
$GPGSA,A,3,25,19,07,27,11,08,03,,,,,,3.0,1.6,2.4*36
$GPRMC,143518.808,A,2831.4761,N,08041.0091,W,0.11,75.95,211108,,*27
$GPGGA,143518.808,2831.4761,N,08041.0091,W,1,07,1.6,8.3,M,-31.2,M,0.0,0000*45
$GPGSA,A,3,25,19,07,27,11,08,03,,,,,,3.0,1.6,2.4*36
$GPRMC,143519.808,A,2831.4759,N,08041.0092,W,0.07,99.77,211108,,*27
$GPGGA,143519.808,2831.4759,N,08041.0092,W,1,09,1.0,7.8,M,-31.2,M,0.0,0000*40
$GPGSA,A,3,25,19,23,07,27,13,11,08,03,,,,1.8,1.0,1.3*3D
$GPRMC,143521.808,A,2831.4758,N,08041.0092,W,0.10,90.85,211108,,*2F
$GPGGA,143521.808,2831.4758,N,08041.0092,W,1,09,1.0,6.3,M,-31.2,M,0.0,0000*40
$GPGSA,A,3,25,19,23,07,27,13,11,08,03,,,,1.8,1.0,1.3*3D
$GPRMC,143522.808,A,2831.4758,N,08041.0093,W,0.23,292.06,211108,,*16
$GPGGA,143522.808,2831.4758,N,08041.0093,W,1,09,0.8,5.0,M,-31.2,M,0.0,0000*4B
$GPGSA,A,3,25,19,23,28,07,27,11,08,03,,,,1.5,0.8,1.2*30
$GPRMC,143523.808,A,2831.4758,N,08041.0094,W,0.11,101.78,211108,,*11
$GPGGA,143523.808,2831.4758,N,08041.0094,W,1,07,1.2,3.8,M,-31.2,M,0.0,0000*46
$GPGSA,A,3,19,28,07,27,11,08,03,,,,,,2.1,1.2,1.6*3E
$GPRMC,143524.808,A,2831.4759,N,08041.0094,W,0.08,68.79,211108,,*20
$GPGGA,143524.808,2831.4759,N,08041.0094,W,1,08,1.2,3.2,M,-31.2,M,0.0,0000*45
$GPGSA,A,3,19,23,07,27,13,11,08,03,,,,,1.9,1.2,1.5*3F
$GPRMC,143526.808,A,2831.4762,N,08041.0095,W,0.11,92.50,211108,,*2D
$GPGGA,143526.808,2831.4762,N,08041.0095,W,1,08,1.0,3.1,M,-31.2,M,0.0,0000*4F
$GPGSA,A,3,19,07,17,27,13,11,08,03,,,,,1.7,1.0,1.3*32
$GPRMC,143527.807,A,2831.4764,N,08041.0095,W,0.13,278.92,211108,,*1F
$GPGGA,143527.807,2831.4764,N,08041.0095,W,1,08,1.0,3.2,M,-31.2,M,0.0,0000*44
$GPGSA,A,3,19,07,17,27,13,11,08,03,,,,,1.7,1.0,1.3*32
-31.2,M,0.0,0000*4B
$GPGSA,A,3,25,19,07,17,27,13,11,08,,,,,2.6,1.4,2.1*31
$GPRMC,143529.807,A,2831.4766,N,08041.0097,W,0.09,95.31,211108,,*22
$GPGGA,143529.807,2831.4766,N,08041.0097,W,1,08,1.4,1.7,M,-31.2,M,0.0,0000*49
$GPGSA,A,3,25,19,07,17,27,13,11,08,,,,,2.6,1.4,2.1*31
$GPRMC,143531.807,A,2831.4767,N,08041.0101,W,0.03,114.48,211108,,*18
$GPGGA,143531.807,2831.4767,N,08041.0101,W,1,08,1.4,0.5,M,-31.2,M,0.0,0000*4C
$GPGSA,A,3,25,19,07,17,27,13,11,08,,,,,2.6,1.4,2.1*31
$GPRMC,143532.807,A,2831.4767,N,08041.0101,W,0.31,126.26,211108,,*13
$GPGGA,143532.807,2831.4767,N,08041.0101,W,1,07,1.4,0.2,M,-31.2,M,0.0,0000*47
$GPGSA,A,3,19,07,17,27,13,11,08,,,,,,2.7,1.4,2.3*35
$GPRMC,143533.807,A,2831.4766,N,08041.0102,W,0.21,171.78,211108,,*18
$GPGGA,143533.807,2831.4766,N,08041.0102,W,1,06,1.8,-0.0,M,-31.2,M,0.0,0000*66
$GPGSA,A,3,19,07,17,27,13,08,,,,,,,2.9,1.8,2.3*37
$GPRMC,143534.807,A,2831.4765,N,08041.0102,W,0.14,125.75,211108,,*16
$GPGGA,143534.807,2831.4765,N,08041.0102,W,1,07,1.4,-0.3,M,-31.2,M,0.0,0000*6C
$GPGSA,A,3,19,07,17,27,13,08,03,,,,,,2.0,1.4,1.4*35
$GPRMC,143536.807,A,2831.4764,N,08041.0102,W,0.14,125.75,211108,,*15
$GPGGA,143536.807,2831.4764,N,08041.0102,W,1,00,1.4,-0.6,M,-31.2,M,0.0,0000*6D
$GPGSA,A,3,,,,,,,,,,,,,2.0,1.4,1.4*30
$GPRMC,143537.807,A,2831.4763,N,08041.0102,W,0.14,125.75,211108,,*13
$GPGGA,143537.807,2831.4763,N,08041.0102,W,1,00,1.4,-0.7,M,-31.2,M,0.0,0000*6A
$GPGSA,A,3,,,,,,,,,,,,,2.0,1.4,1.4*30
$GPRMC,143538.807,A,2831.4762,N,08041.0104,W,0.91,219.92,211108,,*13
$GPGGA,143538.807,2831.4762,N,08041.0104,W,1,03,27.2,-0.9,M,-31.2,M,0.0,0000*5D
$GPGSA,A,2,17,27,08,,,,,,,,,,33.9,27.2,20.0*04
$GPRMC,143539.807,A,2831.4759,N,08041.0106,W,0.91,219.92,211108,,*18
$GPGGA,143539.807,2831.4759,N,08041.0106,W,1,00,27.2,-0.9,M,-31.2,M,0.0,0000*55
$GPGSA,A,2,,,,,,,,,,,,,33.9,27.2,20.0*0F
M,-31.2,M,0.0,0000*58
$GPGSA,A,2,,,,,,,,,,,,,33.9,27.2,20.0*0F
$GPRMC,143542.807,A,2831.4753,N,08041.0113,W,0.91,219.92,211108,,*1A
$GPGGA,143542.807,2831.4753,N,08041.0113,W,1,00,27.2,-1.0,M,-31.2,M,0.0,0000*5F
$GPGSA,A,2,,,,,,,,,,,,,33.9,27.2,20.0*0F
M,-31.2,M,0.0,0000*5B
$GPGSA,A,2,,,,,,,,,,,,,33.9,27.2,20.0*0F
$GPRMC,143544.806,A,2831.4749,N,08041.0117,W,0.91,219.92,211108,,*12
$GPGGA,143544.806,2831.4749,N,08041.0117,W,1,00,27.2,-0.9,M,-31.2,M,0.0,0000*5F
$GPGSA,A,2,,,,,,,,,,,,,33.9,27.2,20.0*0F
$GPRMC,143546.806,A,2831.4745,N,08041.0121,W,0.91,219.92,211108,,*19
$GPGGA,143546.806,2831.4745,N,08041.0121,W,1,00,27.2,-0.9,M,-31.2,M,0.0,0000*54
$GPGSA,A,2,,,,,,,,,,,,,33.9,27.2,20.0*0F
$GPRMC,143547.806,A,2831.4743,N,08041.0123,W,0.91,219.92,211108,,*1C
$GPGGA,143547.806,2831.4743,N,08041.0123,W,1,00,27.2,-0.8,M,-31.2,M,0.0,0000*50
$GPGSA,A,2,,,,,,,,,,,,,33.9,27.2,20.0*0F
$GPRMC,143548.806,A,2831.4741,N,08041.0124,W,0.91,219.92,211108,,*16
$GPGGA,143548.806,2831.4741,N,08041.0124,W,1,00,27.2,-0.8,M,-31.2,M,0.0,0000*5A
$GPGSA,A,2,,,,,,,,,,,,,33.9,27.2,20.0*0F
$GPRMC,143549.806,A,2831.4739,N,08041.0126,W,0.91,219.92,211108,,*1A
$GPGGA,143549.806,2831.4739,N,08041.0126,W,1,00,27.2,-0.7,M,-31.2,M,0.0,0000*59
$GPGSA,A,2,,,,,,,,,,,,,33.9,27.2,20.0*0F
$GPRMC,143551.806,A,2831.4735,N,08041.0130,W,0.91,219.92,211108,,*18
$GPGGA,143551.806,2831.4735,N,08041.0130,W,1,00,27.2,-0.7,M,-31.2,M,0.0,0000*5B
$GPGSA,A,2,,,,,,,,,,,,,33.9,27.2,20.0*0F
$GPRMC,143552.806,A,2831.4737,N,08041.0136,W,1.55,234.35,211108,,*14
$GPGGA,143552.806,2831.4737,N,08041.0136,W,1,02,0.0,-0.6,M,-31.2,M,0.0,0000*68
$GPGSA,A,2,17,08,,,,,,,,,,,0.0,0.0,0.0*3D
$GPRMC,143553.806,A,2831.4744,N,08041.0131,W,0.88,59.83,211108,,*23
$GPGGA,143553.806,2831.4744,N,08041.0131,W,1,02,0.0,-1.1,M,-31.2,M,0.0,0000*6C
$GPGSA,A,2,25,19,,,,,,,,,,,0.0,0.0,0.0*3C
$GPRMC,143554.806,A,2831.4749,N,08041.0107,W,4.72,86.76,211108,,*25
$GPGGA,143554.806,2831.4749,N,08041.0107,W,1,03,50.0,-1.4,M,-31.2,M,0.0,0000*52
$GPGSA,A,2,19,17,03,,,,,,,,,,50.0,50.0,20.0*0C
$GPRMC,143556.806,A,2831.4752,N,08041.0059,W,4.09,98.14,211108,,*20
$GPGGA,143556.806,2831.4752,N,08041.0059,W,1,01,0.0,-2.0,M,-31.2,M,0.0,0000*60
$GPGSA,A,2,19,,,,,,,,,,,,0.0,0.0,0.0*3B
$GPRMC,143557.806,A,2831.4753,N,08041.0039,W,4.09,98.14,211108,,*26
$GPGGA,143557.806,2831.4753,N,08041.0039,W,1,01,0.0,-2.1,M,-31.2,M,0.0,0000*67
$GPGSA,A,2,19,,,,,,,,,,,,0.0,0.0,0.0*3B
$GPRMC,143558.806,A,2831.4775,N,08041.0049,W,0.06,79.61,211108,,*2C
$GPGGA,143558.806,2831.4775,N,08041.0049,W,1,08,0.8,-1.5,M,-31.2,M,0.0,0000*6D
$GPGSA,A,3,19,23,28,17,27,11,08,03,,,,,1.7,0.8,1.4*32
$GPRMC,143559.805,A,2831.4776,N,08041.0047,W,0.12,47.47,211108,,*2F
$GPGGA,143559.805,2831.4776,N,08041.0047,W,1,07,1.0,-1.4,M,-31.2,M,0.0,0000*65
$GPGSA,A,3,19,23,28,07,11,08,03,,,,,,1.8,1.0,1.4*30
$GPRMC,143601.805,A,2831.4774,N,08041.0043,W,1.01,67.65,211108,,*26
$GPGGA,143601.805,2831.4774,N,08041.0043,W,1,09,1.0,-2.2,M,-31.2,M,0.0,0000*66
$GPGSA,A,3,25,19,28,07,17,27,11,08,03,,,,1.6,1.0,1.2*3D
,-31.2,M,0.0,0000*6A
$GPGSA,A,3,19,23,28,27,13,11,08,03,,,,,1.8,0.8,1.5*38
$GPRMC,143603.805,A,2831.4772,N,08041.0047,W,0.10,82.77,211108,,*2F
$GPGGA,143603.805,2831.4772,N,08041.0047,W,1,08,1.2,-2.0,M,-31.2,M,0.0,0000*67
$GPGSA,A,3,19,23,07,27,13,11,08,03,,,,,1.9,1.2,1.5*3F
$GPRMC,143604.805,A,2831.4772,N,08041.0053,W,0.23,270.74,211108,,*11
$GPGGA,143604.805,2831.4772,N,08041.0053,W,1,06,1.2,-1.9,M,-31.2,M,0.0,0000*61
$GPGSA,A,3,07,27,13,11,08,03,,,,,,,2.3,1.2,1.8*32
$GPRMC,143606.805,A,2831.4774,N,08041.0064,W,0.17,235.37,211108,,*10
$GPGGA,143606.805,2831.4774,N,08041.0064,W,1,04,3.0,-2.5,M,-31.2,M,0.0,0000*6C
$GPGSA,A,3,27,13,11,08,,,,,,,,,6.1,3.0,5.2*3E
-31.2,M,0.0,0000*6F
$GPGSA,A,3,25,19,07,17,27,11,08,,,,,,2.6,1.4,2.1*33
$GPRMC,143608.805,A,2831.4777,N,08041.0068,W,0.05,114.63,211108,,*13
$GPGGA,143608.805,2831.4777,N,08041.0068,W,1,05,1.4,-1.9,M,-31.2,M,0.0,0000*65
$GPGSA,A,3,19,17,27,11,03,,,,,,,,2.2,1.4,1.6*38
$GPRMC,143609.805,A,2831.4777,N,08041.0069,W,0.12,128.75,211108,,*1D
$GPGGA,143609.805,2831.4777,N,08041.0069,W,1,07,1.0,-1.6,M,-31.2,M,0.0,0000*6C
$GPGSA,A,3,19,17,27,13,11,08,03,,,,,,1.9,1.0,1.5*3D
$GPRMC,143611.805,A,2831.4776,N,08041.0069,W,0.12,128.75,211108,,*15
$GPGGA,143611.805,2831.4776,N,08041.0069,W,1,00,1.0,-1.2,M,-31.2,M,0.0,0000*67
$GPGSA,A,3,,,,,,,,,,,,,1.9,1.0,1.5*3F
$GPRMC,143612.805,A,2831.4770,N,08041.0070,W,1.10,169.73,211108,,*18
$GPGGA,143612.805,2831.4770,N,08041.0070,W,1,07,1.4,-0.7,M,-31.2,M,0.0,0000*6D
$GPGSA,A,3,19,07,17,27,13,08,03,,,,,,2.0,1.4,1.4*35
,-31.2,M,0.0,0000*6A
$GPGSA,A,3,19,07,17,27,13,08,03,,,,,,2.0,1.4,1.4*35
,-31.2,M,0.0,0000*64
$GPGSA,A,3,19,07,17,27,13,08,03,,,,,,2.0,1.4,1.4*35
$GPRMC,143616.804,A,2831.4770,N,08041.0069,W,0.17,129.37,211108,,*17
