$GPGGA,102248.047,3039.983,N,07652.602,E,1,12,1.0,0.0,M,0.0,M,,*69
$GPGSA,A,3,01,02,03,04,05,06,07,08,09,10,11,12,1.0,1.0,1.0*30
$GPRMC,102248.047,A,3039.983,N,07652.602,E,195.6,092.0,200622,000.0,W*79
$GPGGA,102249.047,3039.980,N,07652.665,E,1,12,1.0,0.0,M,0.0,M,,*6A
$GPGSA,A,3,01,02,03,04,05,06,07,08,09,10,11,12,1.0,1.0,1.0*30
$GPRMC,102249.047,A,3039.980,N,07652.665,E,235.4,089.2,200622,000.0,W*79
$GPGGA,102250.047,3039.981,N,07652.741,E,1,12,1.0,0.0,M,0.0,M,,*64
$GPGSA,A,3,01,02,03,04,05,06,07,08,09,10,11,12,1.0,1.0,1.0*30
$GPRMC,102250.047,A,3039.981,N,07652.741,E,187.7,092.1,200622,000.0,W*77
$GPGGA,102251.047,3039.979,N,07652.802,E,1,12,1.0,0.0,M,0.0,M,,*6A


$GPGSA,A,3,01,02,03,04,05,06,07,08,09,10,11,12,1.0,1.0,1.0*30
$GPRMC,102251.047,A,3039.979,N,07652.802,E,163.6,091.2,200622,000.0,W*72
$GPGGA,102252.047,3039.978,N,07652.854,E,1,12,1.0,0.0,M,0.0,M,,*6B
$GPGSA,A,3,01,02,03,04,05,06,07,08,09,10,11,12,1.0,1.0,1.0*30
$GPRMC,102252.047,A,3039.978,N,07652.854,E,116.3,145.1,200622,000.0,W*7F
$GPGGA,102253.047,3039.950,N,07652.874,E,1,12,1.0,0.0,M,0.0,M,,*62
$GPGSA,A,3,01,02,03,04,05,06,07,08,09,10,11,12,1.0,1.0,1.0*30
$GPRMC,102253.047,A,3039.950,N,07652.874,E,154.1,167.9,200622,000.0,W*7A
$GPGGA,102254.047,3039.908,N,07652.883,E,1,12,1.0,0.0,M,0.0,M,,*60
$GPGSA,A,3,01,02,03,04,05,06,07,08,09,10,11,12,1.0,1.0,1.0*30


$GPRMC,102254.047,A,3039.908,N,07652.883,E,136.6,172.2,200622,000.0,W*74
$GPGGA,102255.047,3039.871,N,07652.888,E,1,12,1.0,0.0,M,0.0,M,,*65
$GPGSA,A,3,01,02,03,04,05,06,07,08,09,10,11,12,1.0,1.0,1.0*30
$GPRMC,102255.047,A,3039.871,N,07652.888,E,112.3,172.9,200622,000.0,W*79
$GPGGA,102256.047,3039.840,N,07652.892,E,1,12,1.0,0.0,M,0.0,M,,*6F
$GPGSA,A,3,01,02,03,04,05,06,07,08,09,10,11,12,1.0,1.0,1.0*30
$GPRMC,102256.047,A,3039.840,N,07652.892,E,123.9,175.7,200622,000.0,W*72
$GPGGA,102257.047,3039.805,N,07652.894,E,1,12,1.0,0.0,M,0.0,M,,*69
$GPGSA,A,3,01,02,03,04,05,06,07,08,09,10,11,12,1.0,1.0,1.0*30
$GPRMC,102257.047,A,3039.805,N,07652.894,E,136.5,162.4,200622,000.0,W*79


$GPGGA,102258.047,3039.769,N,07652.906,E,1,12,1.0,0.0,M,0.0,M,,*69
$GPGSA,A,3,01,02,03,04,05,06,07,08,09,10,11,12,1.0,1.0,1.0*30
$GPRMC,102258.047,A,3039.769,N,07652.906,E,135.6,180.0,200622,000.0,W*71
$GPGGA,102259.047,3039.731,N,07652.906,E,1,12,1.0,0.0,M,0.0,M,,*65
$GPGSA,A,3,01,02,03,04,05,06,07,08,09,10,11,12,1.0,1.0,1.0*30
$GPRMC,102259.047,A,3039.731,N,07652.906,E,099.7,180.0,200622,000.0,W*7B
$GPGGA,102300.047,3039.704,N,07652.906,E,1,12,1.0,0.0,M,0.0,M,,*6E
$GPGSA,A,3,01,02,03,04,05,06,07,08,09,10,11,12,1.0,1.0,1.0*30
$GPRMC,102300.047,A,3039.704,N,07652.906,E,155.8,183.4,200622,000.0,W*79
$GPGGA,102301.047,3039.660,N,07652.903,E,1,12,1.0,0.0,M,0.0,M,,*69


$GPGSA,A,3,01,02,03,04,05,06,07,08,09,10,11,12,1.0,1.0,1.0*30
$GPRMC,102301.047,A,3039.660,N,07652.903,E,096.5,188.3,200622,000.0,W*71
$GPGGA,102302.047,3039.634,N,07652.900,E,1,12,1.0,0.0,M,0.0,M,,*68
$GPGSA,A,3,01,02,03,04,05,06,07,08,09,10,11,12,1.0,1.0,1.0*30
$GPRMC,102302.047,A,3039.634,N,07652.900,E,134.6,193.8,200622,000.0,W*7B
$GPGGA,102303.047,3039.597,N,07652.891,E,1,12,1.0,0.0,M,0.0,M,,*6A
$GPGSA,A,3,01,02,03,04,05,06,07,08,09,10,11,12,1.0,1.0,1.0*30
$GPRMC,102303.047,A,3039.597,N,07652.891,E,175.6,268.9,200622,000.0,W*7A
$GPGGA,102304.047,3039.596,N,07652.834,E,1,12,1.0,0.0,M,0.0,M,,*63
$GPGSA,A,3,01,02,03,04,05,06,07,08,09,10,11,12,1.0,1.0,1.0*30


$GPRMC,102304.047,A,3039.596,N,07652.834,E,144.1,265.9,200622,000.0,W*7B
$GPGGA,102305.047,3039.593,N,07652.788,E,1,12,1.0,0.0,M,0.0,M,,*6F
$GPGSA,A,3,01,02,03,04,05,06,07,08,09,10,11,12,1.0,1.0,1.0*30
$GPRMC,102305.047,A,3039.593,N,07652.788,E,145.0,276.8,200622,000.0,W*74
$GPGGA,102306.047,3039.598,N,07652.741,E,1,12,1.0,0.0,M,0.0,M,,*62
$GPGSA,A,3,01,02,03,04,05,06,07,08,09,10,11,12,1.0,1.0,1.0*30
$GPRMC,102306.047,A,3039.598,N,07652.741,E,145.0,000.0,200622,000.0,W*72
$GPGGA,102307.047,3039.598,N,07652.741,E,1,12,1.0,0.0,M,0.0,M,,*63
$GPGSA,A,3,01,02,03,04,05,06,07,08,09,10,11,12,1.0,1.0,1.0*30
$GPRMC,102307.047,A,3039.598,N,07652.741,E,152.1,273.9,200622,000.0,W*7B


$GPGGA,102308.047,3039.602,N,07652.692,E,1,12,1.0,0.0,M,0.0,M,,*63
$GPGSA,A,3,01,02,03,04,05,06,07,08,09,10,11,12,1.0,1.0,1.0*30
$GPRMC,102308.047,A,3039.602,N,07652.692,E,099.8,357.3,200622,000.0,W*79
$GPGGA,102309.047,3039.629,N,07652.691,E,1,12,1.0,0.0,M,0.0,M,,*68
$GPGSA,A,3,01,02,03,04,05,06,07,08,09,10,11,12,1.0,1.0,1.0*30
$GPRMC,102309.047,A,3039.629,N,07652.691,E,099.8,000.0,200622,000.0,W*70
$GPGGA,102310.047,3039.629,N,07652.691,E,1,12,1.0,0.0,M,0.0,M,,*60
$GPGSA,A,3,01,02,03,04,05,06,07,08,09,10,11,12,1.0,1.0,1.0*30
$GPRMC,102310.047,A,3039.629,N,07652.691,E,099.8,002.7,200622,000.0,W*7D
$GPGGA,102311.047,3039.657,N,07652.692,E,1,12,1.0,0.0,M,0.0,M,,*6B


$GPGSA,A,3,01,02,03,04,05,06,07,08,09,10,11,12,1.0,1.0,1.0*30
$GPRMC,102311.047,A,3039.657,N,07652.692,E,108.9,009.8,200622,000.0,W*7A
$GPGGA,102312.047,3039.687,N,07652.697,E,1,12,1.0,0.0,M,0.0,M,,*60
$GPGSA,A,3,01,02,03,04,05,06,07,08,09,10,11,12,1.0,1.0,1.0*30
$GPRMC,102312.047,A,3039.687,N,07652.697,E,116.8,350.9,200622,000.0,W*71
$GPGGA,102313.047,3039.719,N,07652.692,E,1,12,1.0,0.0,M,0.0,M,,*62
$GPGSA,A,3,01,02,03,04,05,06,07,08,09,10,11,12,1.0,1.0,1.0*30
$GPRMC,102313.047,A,3039.719,N,07652.692,E,116.8,000.0,200622,000.0,W*7C
$GPGGA,102314.047,3039.719,N,07652.692,E,1,12,1.0,0.0,M,0.0,M,,*65
$GPGSA,A,3,01,02,03,04,05,06,07,08,09,10,11,12,1.0,1.0,1.0*30


$GPRMC,102314.047,A,3039.719,N,07652.692,E,135.9,272.9,200622,000.0,W*75
$GPGGA,102315.047,3039.721,N,07652.648,E,1,12,1.0,0.0,M,0.0,M,,*68
$GPGSA,A,3,01,02,03,04,05,06,07,08,09,10,11,12,1.0,1.0,1.0*30
$GPRMC,102315.047,A,3039.721,N,07652.648,E,188.6,264.8,200622,000.0,W*77
$GPGGA,102316.047,3039.716,N,07652.588,E,1,12,1.0,0.0,M,0.0,M,,*60
$GPGSA,A,3,01,02,03,04,05,06,07,08,09,10,11,12,1.0,1.0,1.0*30
$GPRMC,102316.047,A,3039.716,N,07652.588,E,045.5,283.2,200622,000.0,W*7F
$GPGGA,102317.047,3039.719,N,07652.574,E,1,12,1.0,0.0,M,0.0,M,,*6D
$GPGSA,A,3,01,02,03,04,05,06,07,08,09,10,11,12,1.0,1.0,1.0*30
$GPRMC,102317.047,A,3039.719,N,07652.574,E,139.9,356.2,200622,000.0,W*7D


$GPGGA,102318.047,3039.758,N,07652.571,E,1,12,1.0,0.0,M,0.0,M,,*62
$GPGSA,A,3,01,02,03,04,05,06,07,08,09,10,11,12,1.0,1.0,1.0*30
$GPRMC,102318.047,A,3039.758,N,07652.571,E,231.4,001.1,200622,000.0,W*76
$GPGGA,102319.047,3039.822,N,07652.573,E,1,12,1.0,0.0,M,0.0,M,,*63
$GPGSA,A,3,01,02,03,04,05,06,07,08,09,10,11,12,1.0,1.0,1.0*30
$GPRMC,102319.047,A,3039.822,N,07652.573,E,231.4,000.0,200622,000.0,W*77
$GPGGA,102320.047,3039.822,N,07652.573,E,1,12,1.0,0.0,M,0.0,M,,*69
$GPGSA,A,3,01,02,03,04,05,06,07,08,09,10,11,12,1.0,1.0,1.0*30
$GPRMC,102320.047,A,3039.822,N,07652.573,E,000.0,000.0,200622,000.0,W*79
$GPGGA,102321.047,3039.822,N,07652.573,E,1,12,1.0,0.0,M,0.0,M,,*68


$GPGSA,A,3,01,02,03,04,05,06,07,08,09,10,11,12,1.0,1.0,1.0*30
$GPRMC,102321.047,A,3039.822,N,07652.573,E,087.9,357.0,200622,000.0,W*7F
$GPGGA,102322.047,3039.846,N,07652.571,E,1,12,1.0,0.0,M,0.0,M,,*6B
$GPGSA,A,3,01,02,03,04,05,06,07,08,09,10,11,12,1.0,1.0,1.0*30
$GPRMC,102322.047,A,3039.846,N,07652.571,E,167.7,356.8,200622,000.0,W*74
$GPGGA,102323.047,3039.893,N,07652.569,E,1,12,1.0,0.0,M,0.0,M,,*6B
$GPGSA,A,3,01,02,03,04,05,06,07,08,09,10,11,12,1.0,1.0,1.0*30
$GPRMC,102323.047,A,3039.893,N,07652.569,E,112.3,007.1,200622,000.0,W*7C
$GPGGA,102324.047,3039.924,N,07652.573,E,1,12,1.0,0.0,M,0.0,M,,*6A
$GPGSA,A,3,01,02,03,04,05,06,07,08,09,10,11,12,1.0,1.0,1.0*30


