$GPGGA,094958.448,3043.908,N,07642.135,E,1,12,1.0,0.0,M,0.0,M,,*6A
$GPGSA,A,3,01,02,03,04,05,06,07,08,09,10,11,12,1.0,1.0,1.0*30
$GPRMC,094958.448,A,3043.908,N,07642.135,E,155.5,060.9,080722,000.0,W*7A
$GPGGA,094959.448,3043.932,N,07642.177,E,1,12,1.0,0.0,M,0.0,M,,*64
$GPGSA,A,3,01,02,03,04,05,06,07,08,09,10,11,12,1.0,1.0,1.0*30
$GPRMC,094959.448,A,3043.932,N,07642.177,E,155.5,060.9,080722,000.0,W*74
$GPGGA,095000.448,3043.955,N,07642.219,E,1,12,1.0,0.0,M,0.0,M,,*6A
$GPGSA,A,3,01,02,03,04,05,06,07,08,09,10,11,12,1.0,1.0,1.0*30
$GPRMC,095000.448,A,3043.955,N,07642.219,E,155.5,060.9,080722,000.0,W*7A
$GPGGA,095001.448,3043.979,N,07642.262,E,1,12,1.0,0.0,M,0.0,M,,*69
$GPGSA,A,3,01,02,03,04,05,06,07,08,09,10,11,12,1.0,1.0,1.0*30
$GPRMC,095001.448,A,3043.979,N,07642.262,E,155.5,060.9,080722,000.0,W*79
$GPGGA,095002.448,3044.002,N,07642.304,E,1,12,1.0,0.0,M,0.0,M,,*69
$GPGSA,A,3,01,02,03,04,05,06,07,08,09,10,11,12,1.0,1.0,1.0*30
$GPRMC,095002.448,A,3044.002,N,07642.304,E,155.5,060.9,080722,000.0,W*79
$GPGGA,095003.448,3044.025,N,07642.346,E,1,12,1.0,0.0,M,0.0,M,,*6B
$GPGSA,A,3,01,02,03,04,05,06,07,08,09,10,11,12,1.0,1.0,1.0*30
$GPRMC,095003.448,A,3044.025,N,07642.346,E,155.5,060.9,080722,000.0,W*7B
$GPGGA,095004.448,3044.049,N,07642.388,E,1,12,1.0,0.0,M,0.0,M,,*64
$GPGSA,A,3,01,02,03,04,05,06,07,08,09,10,11,12,1.0,1.0,1.0*30
$GPRMC,095004.448,A,3044.049,N,07642.388,E,155.5,060.9,080722,000.0,W*74
$GPGGA,095005.448,3044.072,N,07642.430,E,1,12,1.0,0.0,M,0.0,M,,*69
$GPGSA,A,3,01,02,03,04,05,06,07,08,09,10,11,12,1.0,1.0,1.0*30
$GPRMC,095005.448,A,3044.072,N,07642.430,E,155.5,060.9,080722,000.0,W*79
$GPGGA,095006.448,3044.096,N,07642.472,E,1,12,1.0,0.0,M,0.0,M,,*66
$GPGSA,A,3,01,02,03,04,05,06,07,08,09,10,11,12,1.0,1.0,1.0*30
$GPRMC,095006.448,A,3044.096,N,07642.472,E,155.5,060.9,080722,000.0,W*76
$GPGGA,095007.448,3044.119,N,07642.515,E,1,12,1.0,0.0,M,0.0,M,,*61
$GPGSA,A,3,01,02,03,04,05,06,07,08,09,10,11,12,1.0,1.0,1.0*30
$GPRMC,095007.448,A,3044.119,N,07642.515,E,155.5,060.9,080722,000.0,W*71
$GPGGA,095008.448,3044.143,N,07642.557,E,1,12,1.0,0.0,M,0.0,M,,*67
$GPGSA,A,3,01,02,03,04,05,06,07,08,09,10,11,12,1.0,1.0,1.0*30
$GPRMC,095008.448,A,3044.143,N,07642.557,E,155.5,060.9,080722,000.0,W*77
$GPGGA,095009.448,3044.166,N,07642.599,E,1,12,1.0,0.0,M,0.0,M,,*63
$GPGSA,A,3,01,02,03,04,05,06,07,08,09,10,11,12,1.0,1.0,1.0*30
$GPRMC,095009.448,A,3044.166,N,07642.599,E,155.5,060.9,080722,000.0,W*73
$GPGGA,095010.448,3044.190,N,07642.641,E,1,12,1.0,0.0,M,0.0,M,,*64
$GPGSA,A,3,01,02,03,04,05,06,07,08,09,10,11,12,1.0,1.0,1.0*30
$GPRMC,095010.448,A,3044.190,N,07642.641,E,155.5,060.9,080722,000.0,W*74
$GPGGA,095011.448,3044.213,N,07642.683,E,1,12,1.0,0.0,M,0.0,M,,*63
$GPGSA,A,3,01,02,03,04,05,06,07,08,09,10,11,12,1.0,1.0,1.0*30
$GPRMC,095011.448,A,3044.213,N,07642.683,E,155.5,060.9,080722,000.0,W*73
$GPGGA,095012.448,3044.236,N,07642.725,E,1,12,1.0,0.0,M,0.0,M,,*6A
$GPGSA,A,3,01,02,03,04,05,06,07,08,09,10,11,12,1.0,1.0,1.0*30
$GPRMC,095012.448,A,3044.236,N,07642.725,E,155.5,060.9,080722,000.0,W*7A
$GPGGA,095013.448,3044.260,N,07642.768,E,1,12,1.0,0.0,M,0.0,M,,*61
$GPGSA,A,3,01,02,03,04,05,06,07,08,09,10,11,12,1.0,1.0,1.0*30
$GPRMC,095013.448,A,3044.260,N,07642.768,E,155.5,060.9,080722,000.0,W*71
$GPGGA,095014.448,3044.283,N,07642.810,E,1,12,1.0,0.0,M,0.0,M,,*6B
$GPGSA,A,3,01,02,03,04,05,06,07,08,09,10,11,12,1.0,1.0,1.0*30
$GPRMC,095014.448,A,3044.283,N,07642.810,E,155.5,060.9,080722,000.0,W*7B
$GPGGA,095015.448,3044.307,N,07642.852,E,1,12,1.0,0.0,M,0.0,M,,*61
$GPGSA,A,3,01,02,03,04,05,06,07,08,09,10,11,12,1.0,1.0,1.0*30
$GPRMC,095015.448,A,3044.307,N,07642.852,E,155.5,060.9,080722,000.0,W*71
$GPGGA,095016.448,3044.330,N,07642.894,E,1,12,1.0,0.0,M,0.0,M,,*6C
$GPGSA,A,3,01,02,03,04,05,06,07,08,09,10,11,12,1.0,1.0,1.0*30
$GPRMC,095016.448,A,3044.330,N,07642.894,E,155.5,060.9,080722,000.0,W*7C
$GPGGA,095017.448,3044.354,N,07642.936,E,1,12,1.0,0.0,M,0.0,M,,*66
$GPGSA,A,3,01,02,03,04,05,06,07,08,09,10,11,12,1.0,1.0,1.0*30
$GPRMC,095017.448,A,3044.354,N,07642.936,E,155.5,060.9,080722,000.0,W*76
$GPGGA,095018.448,3044.377,N,07642.978,E,1,12,1.0,0.0,M,0.0,M,,*62
$GPGSA,A,3,01,02,03,04,05,06,07,08,09,10,11,12,1.0,1.0,1.0*30
$GPRMC,095018.448,A,3044.377,N,07642.978,E,155.5,060.9,080722,000.0,W*72
$GPGGA,095019.448,3044.401,N,07643.021,E,1,12,1.0,0.0,M,0.0,M,,*61
$GPGSA,A,3,01,02,03,04,05,06,07,08,09,10,11,12,1.0,1.0,1.0*30
$GPRMC,095019.448,A,3044.401,N,07643.021,E,155.5,060.9,080722,000.0,W*71
$GPGGA,095020.448,3044.424,N,07643.063,E,1,12,1.0,0.0,M,0.0,M,,*6A
$GPGSA,A,3,01,02,03,04,05,06,07,08,09,10,11,12,1.0,1.0,1.0*30
$GPRMC,095020.448,A,3044.424,N,07643.063,E,155.5,060.9,080722,000.0,W*7A
$GPGGA,095021.448,3044.448,N,07643.105,E,1,12,1.0,0.0,M,0.0,M,,*60
$GPGSA,A,3,01,02,03,04,05,06,07,08,09,10,11,12,1.0,1.0,1.0*30
$GPRMC,095021.448,A,3044.448,N,07643.105,E,155.5,060.9,080722,000.0,W*70
$GPGGA,095022.448,3044.471,N,07643.147,E,1,12,1.0,0.0,M,0.0,M,,*6F
$GPGSA,A,3,01,02,03,04,05,06,07,08,09,10,11,12,1.0,1.0,1.0*30
$GPRMC,095022.448,A,3044.471,N,07643.147,E,155.5,060.9,080722,000.0,W*7F
$GPGGA,095023.448,3044.494,N,07643.189,E,1,12,1.0,0.0,M,0.0,M,,*67
$GPGSA,A,3,01,02,03,04,05,06,07,08,09,10,11,12,1.0,1.0,1.0*30
$GPRMC,095023.448,A,3044.494,N,07643.189,E,155.5,060.9,080722,000.0,W*77
$GPGGA,095024.448,3044.518,N,07643.231,E,1,12,1.0,0.0,M,0.0,M,,*65
$GPGSA,A,3,01,02,03,04,05,06,07,08,09,10,11,12,1.0,1.0,1.0*30
$GPRMC,095024.448,A,3044.518,N,07643.231,E,155.5,060.9,080722,000.0,W*75
$GPGGA,095025.448,3044.541,N,07643.274,E,1,12,1.0,0.0,M,0.0,M,,*69
$GPGSA,A,3,01,02,03,04,05,06,07,08,09,10,11,12,1.0,1.0,1.0*30
$GPRMC,095025.448,A,3044.541,N,07643.274,E,155.5,060.9,080722,000.0,W*79
$GPGGA,095026.448,3044.565,N,07643.316,E,1,12,1.0,0.0,M,0.0,M,,*69
$GPGSA,A,3,01,02,03,04,05,06,07,08,09,10,11,12,1.0,1.0,1.0*30
$GPRMC,095026.448,A,3044.565,N,07643.316,E,155.5,060.9,080722,000.0,W*79
$GPGGA,095027.448,3044.588,N,07643.358,E,1,12,1.0,0.0,M,0.0,M,,*61
$GPGSA,A,3,01,02,03,04,05,06,07,08,09,10,11,12,1.0,1.0,1.0*30
$GPRMC,095027.448,A,3044.588,N,07643.358,E,155.5,144.8,080722,000.0,W*77
$GPGGA,095028.448,3044.551,N,07643.384,E,1,12,1.0,0.0,M,0.0,M,,*6B
$GPGSA,A,3,01,02,03,04,05,06,07,08,09,10,11,12,1.0,1.0,1.0*30
$GPRMC,095028.448,A,3044.551,N,07643.384,E,155.5,144.8,080722,000.0,W*7D
$GPGGA,095029.448,3044.514,N,07643.410,E,1,12,1.0,0.0,M,0.0,M,,*61
$GPGSA,A,3,01,02,03,04,05,06,07,08,09,10,11,12,1.0,1.0,1.0*30
$GPRMC,095029.448,A,3044.514,N,07643.410,E,155.5,144.8,080722,000.0,W*77
$GPGGA,095030.448,3044.478,N,07643.436,E,1,12,1.0,0.0,M,0.0,M,,*66
$GPGSA,A,3,01,02,03,04,05,06,07,08,09,10,11,12,1.0,1.0,1.0*30
$GPRMC,095030.448,A,3044.478,N,07643.436,E,155.5,144.8,080722,000.0,W*70
$GPGGA,095031.448,3044.441,N,07643.462,E,1,12,1.0,0.0,M,0.0,M,,*6C
$GPGSA,A,3,01,02,03,04,05,06,07,08,09,10,11,12,1.0,1.0,1.0*30
$GPRMC,095031.448,A,3044.441,N,07643.462,E,155.5,144.8,080722,000.0,W*7A
$GPGGA,095032.448,3044.404,N,07643.488,E,1,12,1.0,0.0,M,0.0,M,,*6A
$GPGSA,A,3,01,02,03,04,05,06,07,08,09,10,11,12,1.0,1.0,1.0*30
$GPRMC,095032.448,A,3044.404,N,07643.488,E,155.5,144.8,080722,000.0,W*7C
$GPGGA,095033.448,3044.367,N,07643.514,E,1,12,1.0,0.0,M,0.0,M,,*6D
$GPGSA,A,3,01,02,03,04,05,06,07,08,09,10,11,12,1.0,1.0,1.0*30
$GPRMC,095033.448,A,3044.367,N,07643.514,E,155.5,144.8,080722,000.0,W*7B
$GPGGA,095034.448,3044.330,N,07643.541,E,1,12,1.0,0.0,M,0.0,M,,*68
$GPGSA,A,3,01,02,03,04,05,06,07,08,09,10,11,12,1.0,1.0,1.0*30
$GPRMC,095034.448,A,3044.330,N,07643.541,E,155.5,144.8,080722,000.0,W*7E
$GPGGA,095035.448,3044.293,N,07643.567,E,1,12,1.0,0.0,M,0.0,M,,*65
$GPGSA,A,3,01,02,03,04,05,06,07,08,09,10,11,12,1.0,1.0,1.0*30
$GPRMC,095035.448,A,3044.293,N,07643.567,E,155.5,144.8,080722,000.0,W*73
$GPGGA,095036.448,3044.256,N,07643.593,E,1,12,1.0,0.0,M,0.0,M,,*64
$GPGSA,A,3,01,02,03,04,05,06,07,08,09,10,11,12,1.0,1.0,1.0*30
$GPRMC,095036.448,A,3044.256,N,07643.593,E,155.5,144.8,080722,000.0,W*72
$GPGGA,095037.448,3044.219,N,07643.619,E,1,12,1.0,0.0,M,0.0,M,,*6F
$GPGSA,A,3,01,02,03,04,05,06,07,08,09,10,11,12,1.0,1.0,1.0*30
$GPRMC,095037.448,A,3044.219,N,07643.619,E,155.5,144.8,080722,000.0,W*79
$GPGGA,095038.448,3044.183,N,07643.645,E,1,12,1.0,0.0,M,0.0,M,,*69
$GPGSA,A,3,01,02,03,04,05,06,07,08,09,10,11,12,1.0,1.0,1.0*30
$GPRMC,095038.448,A,3044.183,N,07643.645,E,155.5,144.8,080722,000.0,W*7F
$GPGGA,095039.448,3044.146,N,07643.671,E,1,12,1.0,0.0,M,0.0,M,,*66
$GPGSA,A,3,01,02,03,04,05,06,07,08,09,10,11,12,1.0,1.0,1.0*30
$GPRMC,095039.448,A,3044.146,N,07643.671,E,155.5,144.8,080722,000.0,W*70
$GPGGA,095040.448,3044.109,N,07643.697,E,1,12,1.0,0.0,M,0.0,M,,*6B
$GPGSA,A,3,01,02,03,04,05,06,07,08,09,10,11,12,1.0,1.0,1.0*30
$GPRMC,095040.448,A,3044.109,N,07643.697,E,155.5,144.8,080722,000.0,W*7D
$GPGGA,095041.448,3044.072,N,07643.723,E,1,12,1.0,0.0,M,0.0,M,,*69
$GPGSA,A,3,01,02,03,04,05,06,07,08,09,10,11,12,1.0,1.0,1.0*30
$GPRMC,095041.448,A,3044.072,N,07643.723,E,155.5,144.8,080722,000.0,W*7F
$GPGGA,095042.448,3044.035,N,07643.749,E,1,12,1.0,0.0,M,0.0,M,,*65
$GPGSA,A,3,01,02,03,04,05,06,07,08,09,10,11,12,1.0,1.0,1.0*30
$GPRMC,095042.448,A,3044.035,N,07643.749,E,155.5,144.8,080722,000.0,W*73
$GPGGA,095043.448,3043.998,N,07643.775,E,1,12,1.0,0.0,M,0.0,M,,*62
$GPGSA,A,3,01,02,03,04,05,06,07,08,09,10,11,12,1.0,1.0,1.0*30
$GPRMC,095043.448,A,3043.998,N,07643.775,E,155.5,144.8,080722,000.0,W*74
$GPGGA,095044.448,3043.961,N,07643.802,E,1,12,1.0,0.0,M,0.0,M,,*6C
$GPGSA,A,3,01,02,03,04,05,06,07,08,09,10,11,12,1.0,1.0,1.0*30
$GPRMC,095044.448,A,3043.961,N,07643.802,E,155.5,144.8,080722,000.0,W*7A
$GPGGA,095045.448,3043.924,N,07643.828,E,1,12,1.0,0.0,M,0.0,M,,*64
$GPGSA,A,3,01,02,03,04,05,06,07,08,09,10,11,12,1.0,1.0,1.0*30
$GPRMC,095045.448,A,3043.924,N,07643.828,E,155.5,144.8,080722,000.0,W*72
$GPGGA,095046.448,3043.887,N,07643.854,E,1,12,1.0,0.0,M,0.0,M,,*64
$GPGSA,A,3,01,02,03,04,05,06,07,08,09,10,11,12,1.0,1.0,1.0*30
$GPRMC,095046.448,A,3043.887,N,07643.854,E,155.5,144.8,080722,000.0,W*72
$GPGGA,095047.448,3043.851,N,07643.880,E,1,12,1.0,0.0,M,0.0,M,,*67
$GPGSA,A,3,01,02,03,04,05,06,07,08,09,10,11,12,1.0,1.0,1.0*30
$GPRMC,095047.448,A,3043.851,N,07643.880,E,155.5,144.8,080722,000.0,W*71
$GPGGA,095048.448,3043.814,N,07643.906,E,1,12,1.0,0.0,M,0.0,M,,*66
$GPGSA,A,3,01,02,03,04,05,06,07,08,09,10,11,12,1.0,1.0,1.0*30
$GPRMC,095048.448,A,3043.814,N,07643.906,E,155.5,144.8,080722,000.0,W*70
$GPGGA,095049.448,3043.777,N,07643.932,E,1,12,1.0,0.0,M,0.0,M,,*6A
$GPGSA,A,3,01,02,03,04,05,06,07,08,09,10,11,12,1.0,1.0,1.0*30
$GPRMC,095049.448,A,3043.777,N,07643.932,E,155.5,144.8,080722,000.0,W*7C
$GPGGA,095050.448,3043.740,N,07643.958,E,1,12,1.0,0.0,M,0.0,M,,*6A
$GPGSA,A,3,01,02,03,04,05,06,07,08,09,10,11,12,1.0,1.0,1.0*30
$GPRMC,095050.448,A,3043.740,N,07643.958,E,155.5,142.4,080722,000.0,W*76
$GPGGA,095051.448,3043.704,N,07643.986,E,1,12,1.0,0.0,M,0.0,M,,*68
$GPGSA,A,3,01,02,03,04,05,06,07,08,09,10,11,12,1.0,1.0,1.0*30
$GPRMC,095051.448,A,3043.704,N,07643.986,E,155.5,142.4,080722,000.0,W*74
$GPGGA,095052.448,3043.668,N,07644.014,E,1,12,1.0,0.0,M,0.0,M,,*65
$GPGSA,A,3,01,02,03,04,05,06,07,08,09,10,11,12,1.0,1.0,1.0*30
$GPRMC,095052.448,A,3043.668,N,07644.014,E,155.5,142.4,080722,000.0,W*79
$GPGGA,095053.448,3043.632,N,07644.041,E,1,12,1.0,0.0,M,0.0,M,,*6B
$GPGSA,A,3,01,02,03,04,05,06,07,08,09,10,11,12,1.0,1.0,1.0*30
$GPRMC,095053.448,A,3043.632,N,07644.041,E,155.5,142.4,080722,000.0,W*77
$GPGGA,095054.448,3043.596,N,07644.069,E,1,12,1.0,0.0,M,0.0,M,,*6B
$GPGSA,A,3,01,02,03,04,05,06,07,08,09,10,11,12,1.0,1.0,1.0*30
$GPRMC,095054.448,A,3043.596,N,07644.069,E,155.5,142.4,080722,000.0,W*77
$GPGGA,095055.448,3043.560,N,07644.097,E,1,12,1.0,0.0,M,0.0,M,,*62
$GPGSA,A,3,01,02,03,04,05,06,07,08,09,10,11,12,1.0,1.0,1.0*30
$GPRMC,095055.448,A,3043.560,N,07644.097,E,155.5,142.4,080722,000.0,W*7E
$GPGGA,095056.448,3043.524,N,07644.125,E,1,12,1.0,0.0,M,0.0,M,,*69
$GPGSA,A,3,01,02,03,04,05,06,07,08,09,10,11,12,1.0,1.0,1.0*30
$GPRMC,095056.448,A,3043.524,N,07644.125,E,155.5,142.4,080722,000.0,W*75
$GPGGA,095057.448,3043.488,N,07644.152,E,1,12,1.0,0.0,M,0.0,M,,*6F
$GPGSA,A,3,01,02,03,04,05,06,07,08,09,10,11,12,1.0,1.0,1.0*30
$GPRMC,095057.448,A,3043.488,N,07644.152,E,155.5,142.4,080722,000.0,W*73
$GPGGA,095058.448,3043.452,N,07644.180,E,1,12,1.0,0.0,M,0.0,M,,*68
$GPGSA,A,3,01,02,03,04,05,06,07,08,09,10,11,12,1.0,1.0,1.0*30
$GPRMC,095058.448,A,3043.452,N,07644.180,E,155.5,142.4,080722,000.0,W*74
$GPGGA,095059.448,3043.416,N,07644.208,E,1,12,1.0,0.0,M,0.0,M,,*6A
$GPGSA,A,3,01,02,03,04,05,06,07,08,09,10,11,12,1.0,1.0,1.0*30
$GPRMC,095059.448,A,3043.416,N,07644.208,E,155.5,142.4,080722,000.0,W*76
$GPGGA,095100.448,3043.380,N,07644.236,E,1,12,1.0,0.0,M,0.0,M,,*62
$GPGSA,A,3,01,02,03,04,05,06,07,08,09,10,11,12,1.0,1.0,1.0*30
$GPRMC,095100.448,A,3043.380,N,07644.236,E,155.5,142.4,080722,000.0,W*7E
$GPGGA,095101.448,3043.344,N,07644.264,E,1,12,1.0,0.0,M,0.0,M,,*6C
$GPGSA,A,3,01,02,03,04,05,06,07,08,09,10,11,12,1.0,1.0,1.0*30
$GPRMC,095101.448,A,3043.344,N,07644.264,E,155.5,142.4,080722,000.0,W*70
$GPGGA,095102.448,3043.308,N,07644.291,E,1,12,1.0,0.0,M,0.0,M,,*6D
$GPGSA,A,3,01,02,03,04,05,06,07,08,09,10,11,12,1.0,1.0,1.0*30
$GPRMC,095102.448,A,3043.308,N,07644.291,E,155.5,142.4,080722,000.0,W*71
$GPGGA,095103.448,3043.272,N,07644.319,E,1,12,1.0,0.0,M,0.0,M,,*61
$GPGSA,A,3,01,02,03,04,05,06,07,08,09,10,11,12,1.0,1.0,1.0*30
$GPRMC,095103.448,A,3043.272,N,07644.319,E,155.5,142.4,080722,000.0,W*7D
$GPGGA,095104.448,3043.236,N,07644.347,E,1,12,1.0,0.0,M,0.0,M,,*6D
$GPGSA,A,3,01,02,03,04,05,06,07,08,09,10,11,12,1.0,1.0,1.0*30
$GPRMC,095104.448,A,3043.236,N,07644.347,E,155.5,142.4,080722,000.0,W*71
$GPGGA,095105.448,3043.200,N,07644.375,E,1,12,1.0,0.0,M,0.0,M,,*68
$GPGSA,A,3,01,02,03,04,05,06,07,08,09,10,11,12,1.0,1.0,1.0*30
$GPRMC,095105.448,A,3043.200,N,07644.375,E,155.5,142.4,080722,000.0,W*74
$GPGGA,095106.448,3043.164,N,07644.402,E,1,12,1.0,0.0,M,0.0,M,,*6D
$GPGSA,A,3,01,02,03,04,05,06,07,08,09,10,11,12,1.0,1.0,1.0*30
$GPRMC,095106.448,A,3043.164,N,07644.402,E,155.5,142.4,080722,000.0,W*71
$GPGGA,095107.448,3043.128,N,07644.430,E,1,12,1.0,0.0,M,0.0,M,,*65
$GPGSA,A,3,01,02,03,04,05,06,07,08,09,10,11,12,1.0,1.0,1.0*30
$GPRMC,095107.448,A,3043.128,N,07644.430,E,155.5,142.4,080722,000.0,W*79
$GPGGA,095108.448,3043.093,N,07644.458,E,1,12,1.0,0.0,M,0.0,M,,*65
$GPGSA,A,3,01,02,03,04,05,06,07,08,09,10,11,12,1.0,1.0,1.0*30
$GPRMC,095108.448,A,3043.093,N,07644.458,E,155.5,142.4,080722,000.0,W*79
$GPGGA,095109.448,3043.057,N,07644.486,E,1,12,1.0,0.0,M,0.0,M,,*6F
$GPGSA,A,3,01,02,03,04,05,06,07,08,09,10,11,12,1.0,1.0,1.0*30
$GPRMC,095109.448,A,3043.057,N,07644.486,E,155.5,142.4,080722,000.0,W*73
$GPGGA,095110.448,3043.021,N,07644.513,E,1,12,1.0,0.0,M,0.0,M,,*6B
$GPGSA,A,3,01,02,03,04,05,06,07,08,09,10,11,12,1.0,1.0,1.0*30
$GPRMC,095110.448,A,3043.021,N,07644.513,E,155.5,142.4,080722,000.0,W*77
$GPGGA,095111.448,3042.985,N,07644.541,E,1,12,1.0,0.0,M,0.0,M,,*6B
$GPGSA,A,3,01,02,03,04,05,06,07,08,09,10,11,12,1.0,1.0,1.0*30
$GPRMC,095111.448,A,3042.985,N,07644.541,E,155.5,142.4,080722,000.0,W*77
$GPGGA,095112.448,3042.949,N,07644.569,E,1,12,1.0,0.0,M,0.0,M,,*62
$GPGSA,A,3,01,02,03,04,05,06,07,08,09,10,11,12,1.0,1.0,1.0*30
$GPRMC,095112.448,A,3042.949,N,07644.569,E,155.5,142.4,080722,000.0,W*7E
$GPGGA,095113.448,3042.913,N,07644.597,E,1,12,1.0,0.0,M,0.0,M,,*6D
$GPGSA,A,3,01,02,03,04,05,06,07,08,09,10,11,12,1.0,1.0,1.0*30
$GPRMC,095113.448,A,3042.913,N,07644.597,E,155.5,142.4,080722,000.0,W*71
$GPGGA,095114.448,3042.877,N,07644.625,E,1,12,1.0,0.0,M,0.0,M,,*63
$GPGSA,A,3,01,02,03,04,05,06,07,08,09,10,11,12,1.0,1.0,1.0*30
$GPRMC,095114.448,A,3042.877,N,07644.625,E,155.5,142.4,080722,000.0,W*7F
$GPGGA,095115.448,3042.841,N,07644.652,E,1,12,1.0,0.0,M,0.0,M,,*67
$GPGSA,A,3,01,02,03,04,05,06,07,08,09,10,11,12,1.0,1.0,1.0*30
$GPRMC,095115.448,A,3042.841,N,07644.652,E,155.5,142.4,080722,000.0,W*7B
$GPGGA,095116.448,3042.805,N,07644.680,E,1,12,1.0,0.0,M,0.0,M,,*6B
$GPGSA,A,3,01,02,03,04,05,06,07,08,09,10,11,12,1.0,1.0,1.0*30
$GPRMC,095116.448,A,3042.805,N,07644.680,E,155.5,142.4,080722,000.0,W*77
$GPGGA,095117.448,3042.769,N,07644.708,E,1,12,1.0,0.0,M,0.0,M,,*6E
$GPGSA,A,3,01,02,03,04,05,06,07,08,09,10,11,12,1.0,1.0,1.0*30
$GPRMC,095117.448,A,3042.769,N,07644.708,E,155.5,236.0,080722,000.0,W*76
$GPGGA,095118.448,3042.742,N,07644.668,E,1,12,1.0,0.0,M,0.0,M,,*6F
$GPGSA,A,3,01,02,03,04,05,06,07,08,09,10,11,12,1.0,1.0,1.0*30
$GPRMC,095118.448,A,3042.742,N,07644.668,E,155.5,236.0,080722,000.0,W*77
$GPGGA,095119.448,3042.716,N,07644.629,E,1,12,1.0,0.0,M,0.0,M,,*6A
$GPGSA,A,3,01,02,03,04,05,06,07,08,09,10,11,12,1.0,1.0,1.0*30
$GPRMC,095119.448,A,3042.716,N,07644.629,E,155.5,236.0,080722,000.0,W*72
$GPGGA,095120.448,3042.689,N,07644.589,E,1,12,1.0,0.0,M,0.0,M,,*6E
$GPGSA,A,3,01,02,03,04,05,06,07,08,09,10,11,12,1.0,1.0,1.0*30
$GPRMC,095120.448,A,3042.689,N,07644.589,E,155.5,236.0,080722,000.0,W*76
$GPGGA,095121.448,3042.662,N,07644.550,E,1,12,1.0,0.0,M,0.0,M,,*6E
$GPGSA,A,3,01,02,03,04,05,06,07,08,09,10,11,12,1.0,1.0,1.0*30
$GPRMC,095121.448,A,3042.662,N,07644.550,E,155.5,236.0,080722,000.0,W*76
$GPGGA,095122.448,3042.636,N,07644.510,E,1,12,1.0,0.0,M,0.0,M,,*68
$GPGSA,A,3,01,02,03,04,05,06,07,08,09,10,11,12,1.0,1.0,1.0*30
$GPRMC,095122.448,A,3042.636,N,07644.510,E,155.5,236.0,080722,000.0,W*70
$GPGGA,095123.448,3042.609,N,07644.471,E,1,12,1.0,0.0,M,0.0,M,,*63
$GPGSA,A,3,01,02,03,04,05,06,07,08,09,10,11,12,1.0,1.0,1.0*30
$GPRMC,095123.448,A,3042.609,N,07644.471,E,155.5,236.0,080722,000.0,W*7B
$GPGGA,095124.448,3042.582,N,07644.431,E,1,12,1.0,0.0,M,0.0,M,,*60
$GPGSA,A,3,01,02,03,04,05,06,07,08,09,10,11,12,1.0,1.0,1.0*30
$GPRMC,095124.448,A,3042.582,N,07644.431,E,155.5,236.0,080722,000.0,W*78
$GPGGA,095125.448,3042.556,N,07644.392,E,1,12,1.0,0.0,M,0.0,M,,*66
$GPGSA,A,3,01,02,03,04,05,06,07,08,09,10,11,12,1.0,1.0,1.0*30
$GPRMC,095125.448,A,3042.556,N,07644.392,E,155.5,236.0,080722,000.0,W*7E
$GPGGA,095126.448,3042.529,N,07644.352,E,1,12,1.0,0.0,M,0.0,M,,*61
$GPGSA,A,3,01,02,03,04,05,06,07,08,09,10,11,12,1.0,1.0,1.0*30
$GPRMC,095126.448,A,3042.529,N,07644.352,E,155.5,236.0,080722,000.0,W*79
$GPGGA,095127.448,3042.503,N,07644.313,E,1,12,1.0,0.0,M,0.0,M,,*6D
$GPGSA,A,3,01,02,03,04,05,06,07,08,09,10,11,12,1.0,1.0,1.0*30
$GPRMC,095127.448,A,3042.503,N,07644.313,E,155.5,236.0,080722,000.0,W*75
$GPGGA,095128.448,3042.476,N,07644.273,E,1,12,1.0,0.0,M,0.0,M,,*66
$GPGSA,A,3,01,02,03,04,05,06,07,08,09,10,11,12,1.0,1.0,1.0*30
$GPRMC,095128.448,A,3042.476,N,07644.273,E,155.5,236.0,080722,000.0,W*7E
$GPGGA,095129.448,3042.449,N,07644.234,E,1,12,1.0,0.0,M,0.0,M,,*68
$GPGSA,A,3,01,02,03,04,05,06,07,08,09,10,11,12,1.0,1.0,1.0*30
$GPRMC,095129.448,A,3042.449,N,07644.234,E,155.5,236.0,080722,000.0,W*70
$GPGGA,095130.448,3042.423,N,07644.194,E,1,12,1.0,0.0,M,0.0,M,,*65
$GPGSA,A,3,01,02,03,04,05,06,07,08,09,10,11,12,1.0,1.0,1.0*30
$GPRMC,095130.448,A,3042.423,N,07644.194,E,155.5,236.0,080722,000.0,W*7D
$GPGGA,095131.448,3042.396,N,07644.155,E,1,12,1.0,0.0,M,0.0,M,,*60
$GPGSA,A,3,01,02,03,04,05,06,07,08,09,10,11,12,1.0,1.0,1.0*30
$GPRMC,095131.448,A,3042.396,N,07644.155,E,155.5,236.0,080722,000.0,W*78
$GPGGA,095132.448,3042.369,N,07644.115,E,1,12,1.0,0.0,M,0.0,M,,*67
$GPGSA,A,3,01,02,03,04,05,06,07,08,09,10,11,12,1.0,1.0,1.0*30
$GPRMC,095132.448,A,3042.369,N,07644.115,E,155.5,236.0,080722,000.0,W*7F
$GPGGA,095133.448,3042.343,N,07644.076,E,1,12,1.0,0.0,M,0.0,M,,*6A
$GPGSA,A,3,01,02,03,04,05,06,07,08,09,10,11,12,1.0,1.0,1.0*30
$GPRMC,095133.448,A,3042.343,N,07644.076,E,155.5,236.0,080722,000.0,W*72
$GPGGA,095134.448,3042.316,N,07644.036,E,1,12,1.0,0.0,M,0.0,M,,*69
$GPGSA,A,3,01,02,03,04,05,06,07,08,09,10,11,12,1.0,1.0,1.0*30
$GPRMC,095134.448,A,3042.316,N,07644.036,E,155.5,236.0,080722,000.0,W*71
$GPGGA,095135.448,3042.289,N,07643.997,E,1,12,1.0,0.0,M,0.0,M,,*6A
$GPGSA,A,3,01,02,03,04,05,06,07,08,09,10,11,12,1.0,1.0,1.0*30
$GPRMC,095135.448,A,3042.289,N,07643.997,E,155.5,236.0,080722,000.0,W*72
$GPGGA,095136.448,3042.263,N,07643.957,E,1,12,1.0,0.0,M,0.0,M,,*61
$GPGSA,A,3,01,02,03,04,05,06,07,08,09,10,11,12,1.0,1.0,1.0*30
$GPRMC,095136.448,A,3042.263,N,07643.957,E,155.5,236.0,080722,000.0,W*79
$GPGGA,095137.448,3042.236,N,07643.918,E,1,12,1.0,0.0,M,0.0,M,,*6B
$GPGSA,A,3,01,02,03,04,05,06,07,08,09,10,11,12,1.0,1.0,1.0*30
$GPRMC,095137.448,A,3042.236,N,07643.918,E,155.5,236.0,080722,000.0,W*73
$GPGGA,095138.448,3042.210,N,07643.878,E,1,12,1.0,0.0,M,0.0,M,,*67
$GPGSA,A,3,01,02,03,04,05,06,07,08,09,10,11,12,1.0,1.0,1.0*30
$GPRMC,095138.448,A,3042.210,N,07643.878,E,155.5,236.0,080722,000.0,W*7F
$GPGGA,095139.448,3042.183,N,07643.839,E,1,12,1.0,0.0,M,0.0,M,,*6A
$GPGSA,A,3,01,02,03,04,05,06,07,08,09,10,11,12,1.0,1.0,1.0*30
$GPRMC,095139.448,A,3042.183,N,07643.839,E,155.5,236.0,080722,000.0,W*72
$GPGGA,095140.448,3042.156,N,07643.799,E,1,12,1.0,0.0,M,0.0,M,,*69
$GPGSA,A,3,01,02,03,04,05,06,07,08,09,10,11,12,1.0,1.0,1.0*30
$GPRMC,095140.448,A,3042.156,N,07643.799,E,155.5,236.0,080722,000.0,W*71
$GPGGA,095141.448,3042.130,N,07643.759,E,1,12,1.0,0.0,M,0.0,M,,*64
$GPGSA,A,3,01,02,03,04,05,06,07,08,09,10,11,12,1.0,1.0,1.0*30
$GPRMC,095141.448,A,3042.130,N,07643.759,E,155.5,236.0,080722,000.0,W*7C
$GPGGA,095142.448,3042.103,N,07643.720,E,1,12,1.0,0.0,M,0.0,M,,*69
$GPGSA,A,3,01,02,03,04,05,06,07,08,09,10,11,12,1.0,1.0,1.0*30
$GPRMC,095142.448,A,3042.103,N,07643.720,E,155.5,236.0,080722,000.0,W*71
$GPGGA,095143.448,3042.076,N,07643.680,E,1,12,1.0,0.0,M,0.0,M,,*60
$GPGSA,A,3,01,02,03,04,05,06,07,08,09,10,11,12,1.0,1.0,1.0*30
$GPRMC,095143.448,A,3042.076,N,07643.680,E,155.5,236.0,080722,000.0,W*78
$GPGGA,095144.448,3042.050,N,07643.641,E,1,12,1.0,0.0,M,0.0,M,,*6E
$GPGSA,A,3,01,02,03,04,05,06,07,08,09,10,11,12,1.0,1.0,1.0*30
$GPRMC,095144.448,A,3042.050,N,07643.641,E,155.5,236.0,080722,000.0,W*76
$GPGGA,095145.448,3042.023,N,07643.601,E,1,12,1.0,0.0,M,0.0,M,,*6F
$GPGSA,A,3,01,02,03,04,05,06,07,08,09,10,11,12,1.0,1.0,1.0*30
$GPRMC,095145.448,A,3042.023,N,07643.601,E,155.5,236.0,080722,000.0,W*77
$GPGGA,095146.448,3041.997,N,07643.562,E,1,12,1.0,0.0,M,0.0,M,,*6F
$GPGSA,A,3,01,02,03,04,05,06,07,08,09,10,11,12,1.0,1.0,1.0*30
$GPRMC,095146.448,A,3041.997,N,07643.562,E,155.5,236.0,080722,000.0,W*77
$GPGGA,095147.448,3041.970,N,07643.522,E,1,12,1.0,0.0,M,0.0,M,,*63
$GPGSA,A,3,01,02,03,04,05,06,07,08,09,10,11,12,1.0,1.0,1.0*30
$GPRMC,095147.448,A,3041.970,N,07643.522,E,155.5,236.0,080722,000.0,W*7B
$GPGGA,095148.448,3041.943,N,07643.483,E,1,12,1.0,0.0,M,0.0,M,,*66
$GPGSA,A,3,01,02,03,04,05,06,07,08,09,10,11,12,1.0,1.0,1.0*30
$GPRMC,095148.448,A,3041.943,N,07643.483,E,155.5,236.0,080722,000.0,W*7E
$GPGGA,095149.448,3041.917,N,07643.443,E,1,12,1.0,0.0,M,0.0,M,,*6A
$GPGSA,A,3,01,02,03,04,05,06,07,08,09,10,11,12,1.0,1.0,1.0*30
$GPRMC,095149.448,A,3041.917,N,07643.443,E,155.5,236.0,080722,000.0,W*72
$GPGGA,095150.448,3041.890,N,07643.404,E,1,12,1.0,0.0,M,0.0,M,,*6F
$GPGSA,A,3,01,02,03,04,05,06,07,08,09,10,11,12,1.0,1.0,1.0*30
$GPRMC,095150.448,A,3041.890,N,07643.404,E,155.5,236.0,080722,000.0,W*77
$GPGGA,095151.448,3041.863,N,07643.364,E,1,12,1.0,0.0,M,0.0,M,,*63
$GPGSA,A,3,01,02,03,04,05,06,07,08,09,10,11,12,1.0,1.0,1.0*30
$GPRMC,095151.448,A,3041.863,N,07643.364,E,155.5,236.0,080722,000.0,W*7B
$GPGGA,095152.448,3041.837,N,07643.325,E,1,12,1.0,0.0,M,0.0,M,,*64
$GPGSA,A,3,01,02,03,04,05,06,07,08,09,10,11,12,1.0,1.0,1.0*30
$GPRMC,095152.448,A,3041.837,N,07643.325,E,155.5,236.0,080722,000.0,W*7C
$GPGGA,095153.448,3041.810,N,07643.285,E,1,12,1.0,0.0,M,0.0,M,,*6B
$GPGSA,A,3,01,02,03,04,05,06,07,08,09,10,11,12,1.0,1.0,1.0*30
$GPRMC,095153.448,A,3041.810,N,07643.285,E,155.5,236.0,080722,000.0,W*73
$GPGGA,095154.448,3041.784,N,07643.246,E,1,12,1.0,0.0,M,0.0,M,,*61
$GPGSA,A,3,01,02,03,04,05,06,07,08,09,10,11,12,1.0,1.0,1.0*30
$GPRMC,095154.448,A,3041.784,N,07643.246,E,155.5,236.0,080722,000.0,W*79
$GPGGA,095155.448,3041.757,N,07643.206,E,1,12,1.0,0.0,M,0.0,M,,*6A
$GPGSA,A,3,01,02,03,04,05,06,07,08,09,10,11,12,1.0,1.0,1.0*30
$GPRMC,095155.448,A,3041.757,N,07643.206,E,155.5,236.0,080722,000.0,W*72
$GPGGA,095156.448,3041.730,N,07643.167,E,1,12,1.0,0.0,M,0.0,M,,*6C
$GPGSA,A,3,01,02,03,04,05,06,07,08,09,10,11,12,1.0,1.0,1.0*30
$GPRMC,095156.448,A,3041.730,N,07643.167,E,155.5,236.0,080722,000.0,W*74
$GPGGA,095157.448,3041.704,N,07643.127,E,1,12,1.0,0.0,M,0.0,M,,*6E
$GPGSA,A,3,01,02,03,04,05,06,07,08,09,10,11,12,1.0,1.0,1.0*30
$GPRMC,095157.448,A,3041.704,N,07643.127,E,155.5,236.0,080722,000.0,W*76
$GPGGA,095158.448,3041.677,N,07643.088,E,1,12,1.0,0.0,M,0.0,M,,*60
$GPGSA,A,3,01,02,03,04,05,06,07,08,09,10,11,12,1.0,1.0,1.0*30
$GPRMC,095158.448,A,3041.677,N,07643.088,E,155.5,236.0,080722,000.0,W*78
$GPGGA,095159.448,3041.650,N,07643.048,E,1,12,1.0,0.0,M,0.0,M,,*68
$GPGSA,A,3,01,02,03,04,05,06,07,08,09,10,11,12,1.0,1.0,1.0*30
$GPRMC,095159.448,A,3041.650,N,07643.048,E,155.5,236.0,080722,000.0,W*70
$GPGGA,095200.448,3041.624,N,07643.009,E,1,12,1.0,0.0,M,0.0,M,,*61
$GPGSA,A,3,01,02,03,04,05,06,07,08,09,10,11,12,1.0,1.0,1.0*30
$GPRMC,095200.448,A,3041.624,N,07643.009,E,155.5,236.0,080722,000.0,W*79
$GPGGA,095201.448,3041.597,N,07642.969,E,1,12,1.0,0.0,M,0.0,M,,*65
$GPGSA,A,3,01,02,03,04,05,06,07,08,09,10,11,12,1.0,1.0,1.0*30
$GPRMC,095201.448,A,3041.597,N,07642.969,E,155.5,236.0,080722,000.0,W*7D
$GPGGA,095202.448,3041.570,N,07642.930,E,1,12,1.0,0.0,M,0.0,M,,*63
$GPGSA,A,3,01,02,03,04,05,06,07,08,09,10,11,12,1.0,1.0,1.0*30
$GPRMC,095202.448,A,3041.570,N,07642.930,E,155.5,236.0,080722,000.0,W*7B
$GPGGA,095203.448,3041.544,N,07642.890,E,1,12,1.0,0.0,M,0.0,M,,*6E
$GPGSA,A,3,01,02,03,04,05,06,07,08,09,10,11,12,1.0,1.0,1.0*30
$GPRMC,095203.448,A,3041.544,N,07642.890,E,155.5,236.0,080722,000.0,W*76
$GPGGA,095204.448,3041.517,N,07642.851,E,1,12,1.0,0.0,M,0.0,M,,*62
$GPGSA,A,3,01,02,03,04,05,06,07,08,09,10,11,12,1.0,1.0,1.0*30
$GPRMC,095204.448,A,3041.517,N,07642.851,E,155.5,236.0,080722,000.0,W*7A
$GPGGA,095205.448,3041.491,N,07642.811,E,1,12,1.0,0.0,M,0.0,M,,*68
$GPGSA,A,3,01,02,03,04,05,06,07,08,09,10,11,12,1.0,1.0,1.0*30
$GPRMC,095205.448,A,3041.491,N,07642.811,E,155.5,236.0,080722,000.0,W*70
$GPGGA,095206.448,3041.464,N,07642.772,E,1,12,1.0,0.0,M,0.0,M,,*6B
$GPGSA,A,3,01,02,03,04,05,06,07,08,09,10,11,12,1.0,1.0,1.0*30
$GPRMC,095206.448,A,3041.464,N,07642.772,E,155.5,144.6,080722,000.0,W*73
$GPGGA,095207.448,3041.427,N,07642.798,E,1,12,1.0,0.0,M,0.0,M,,*69
$GPGSA,A,3,01,02,03,04,05,06,07,08,09,10,11,12,1.0,1.0,1.0*30
$GPRMC,095207.448,A,3041.427,N,07642.798,E,155.5,144.6,080722,000.0,W*71
$GPGGA,095208.448,3041.390,N,07642.824,E,1,12,1.0,0.0,M,0.0,M,,*65
$GPGSA,A,3,01,02,03,04,05,06,07,08,09,10,11,12,1.0,1.0,1.0*30
$GPRMC,095208.448,A,3041.390,N,07642.824,E,155.5,144.6,080722,000.0,W*7D
$GPGGA,095209.448,3041.354,N,07642.850,E,1,12,1.0,0.0,M,0.0,M,,*6F
$GPGSA,A,3,01,02,03,04,05,06,07,08,09,10,11,12,1.0,1.0,1.0*30
$GPRMC,095209.448,A,3041.354,N,07642.850,E,155.5,144.6,080722,000.0,W*77
$GPGGA,095210.448,3041.317,N,07642.877,E,1,12,1.0,0.0,M,0.0,M,,*65
$GPGSA,A,3,01,02,03,04,05,06,07,08,09,10,11,12,1.0,1.0,1.0*30
$GPRMC,095210.448,A,3041.317,N,07642.877,E,155.5,144.6,080722,000.0,W*7D
$GPGGA,095211.448,3041.280,N,07642.903,E,1,12,1.0,0.0,M,0.0,M,,*69
$GPGSA,A,3,01,02,03,04,05,06,07,08,09,10,11,12,1.0,1.0,1.0*30
$GPRMC,095211.448,A,3041.280,N,07642.903,E,155.5,144.6,080722,000.0,W*71
$GPGGA,095212.448,3041.243,N,07642.929,E,1,12,1.0,0.0,M,0.0,M,,*6D
$GPGSA,A,3,01,02,03,04,05,06,07,08,09,10,11,12,1.0,1.0,1.0*30
$GPRMC,095212.448,A,3041.243,N,07642.929,E,155.5,144.6,080722,000.0,W*75
$GPGGA,095213.448,3041.206,N,07642.955,E,1,12,1.0,0.0,M,0.0,M,,*66
$GPGSA,A,3,01,02,03,04,05,06,07,08,09,10,11,12,1.0,1.0,1.0*30
$GPRMC,095213.448,A,3041.206,N,07642.955,E,155.5,144.6,080722,000.0,W*7E
$GPGGA,095214.448,3041.169,N,07642.981,E,1,12,1.0,0.0,M,0.0,M,,*62
$GPGSA,A,3,01,02,03,04,05,06,07,08,09,10,11,12,1.0,1.0,1.0*30
$GPRMC,095214.448,A,3041.169,N,07642.981,E,155.5,144.6,080722,000.0,W*7A
$GPGGA,095215.448,3041.133,N,07643.008,E,1,12,1.0,0.0,M,0.0,M,,*65
$GPGSA,A,3,01,02,03,04,05,06,07,08,09,10,11,12,1.0,1.0,1.0*30
$GPRMC,095215.448,A,3041.133,N,07643.008,E,155.5,144.6,080722,000.0,W*7D
$GPGGA,095216.448,3041.096,N,07643.034,E,1,12,1.0,0.0,M,0.0,M,,*67
$GPGSA,A,3,01,02,03,04,05,06,07,08,09,10,11,12,1.0,1.0,1.0*30
$GPRMC,095216.448,A,3041.096,N,07643.034,E,155.5,144.6,080722,000.0,W*7F
$GPGGA,095217.448,3041.059,N,07643.060,E,1,12,1.0,0.0,M,0.0,M,,*64
$GPGSA,A,3,01,02,03,04,05,06,07,08,09,10,11,12,1.0,1.0,1.0*30
$GPRMC,095217.448,A,3041.059,N,07643.060,E,155.5,144.6,080722,000.0,W*7C
$GPGGA,095218.448,3041.022,N,07643.086,E,1,12,1.0,0.0,M,0.0,M,,*6F
$GPGSA,A,3,01,02,03,04,05,06,07,08,09,10,11,12,1.0,1.0,1.0*30
$GPRMC,095218.448,A,3041.022,N,07643.086,E,155.5,144.6,080722,000.0,W*77
$GPGGA,095219.448,3040.985,N,07643.112,E,1,12,1.0,0.0,M,0.0,M,,*67
$GPGSA,A,3,01,02,03,04,05,06,07,08,09,10,11,12,1.0,1.0,1.0*30
$GPRMC,095219.448,A,3040.985,N,07643.112,E,155.5,144.6,080722,000.0,W*7F
$GPGGA,095220.448,3040.949,N,07643.139,E,1,12,1.0,0.0,M,0.0,M,,*64
$GPGSA,A,3,01,02,03,04,05,06,07,08,09,10,11,12,1.0,1.0,1.0*30
$GPRMC,095220.448,A,3040.949,N,07643.139,E,155.5,144.6,080722,000.0,W*7C
$GPGGA,095221.448,3040.912,N,07643.165,E,1,12,1.0,0.0,M,0.0,M,,*62
$GPGSA,A,3,01,02,03,04,05,06,07,08,09,10,11,12,1.0,1.0,1.0*30
$GPRMC,095221.448,A,3040.912,N,07643.165,E,155.5,144.6,080722,000.0,W*7A
$GPGGA,095222.448,3040.875,N,07643.191,E,1,12,1.0,0.0,M,0.0,M,,*6A
$GPGSA,A,3,01,02,03,04,05,06,07,08,09,10,11,12,1.0,1.0,1.0*30
$GPRMC,095222.448,A,3040.875,N,07643.191,E,155.5,144.6,080722,000.0,W*72
$GPGGA,095223.448,3040.838,N,07643.217,E,1,12,1.0,0.0,M,0.0,M,,*6F
$GPGSA,A,3,01,02,03,04,05,06,07,08,09,10,11,12,1.0,1.0,1.0*30
$GPRMC,095223.448,A,3040.838,N,07643.217,E,155.5,144.6,080722,000.0,W*77
$GPGGA,095224.448,3040.801,N,07643.244,E,1,12,1.0,0.0,M,0.0,M,,*64
$GPGSA,A,3,01,02,03,04,05,06,07,08,09,10,11,12,1.0,1.0,1.0*30
$GPRMC,095224.448,A,3040.801,N,07643.244,E,155.5,144.6,080722,000.0,W*7C
$GPGGA,095225.448,3040.765,N,07643.270,E,1,12,1.0,0.0,M,0.0,M,,*6F
$GPGSA,A,3,01,02,03,04,05,06,07,08,09,10,11,12,1.0,1.0,1.0*30
$GPRMC,095225.448,A,3040.765,N,07643.270,E,155.5,144.6,080722,000.0,W*77
$GPGGA,095226.448,3040.728,N,07643.296,E,1,12,1.0,0.0,M,0.0,M,,*6D
$GPGSA,A,3,01,02,03,04,05,06,07,08,09,10,11,12,1.0,1.0,1.0*30
$GPRMC,095226.448,A,3040.728,N,07643.296,E,155.5,144.6,080722,000.0,W*75
$GPGGA,095227.448,3040.691,N,07643.322,E,1,12,1.0,0.0,M,0.0,M,,*61
$GPGSA,A,3,01,02,03,04,05,06,07,08,09,10,11,12,1.0,1.0,1.0*30
$GPRMC,095227.448,A,3040.691,N,07643.322,E,155.5,144.6,080722,000.0,W*79
$GPGGA,095228.448,3040.654,N,07643.348,E,1,12,1.0,0.0,M,0.0,M,,*6B
$GPGSA,A,3,01,02,03,04,05,06,07,08,09,10,11,12,1.0,1.0,1.0*30
$GPRMC,095228.448,A,3040.654,N,07643.348,E,155.5,144.6,080722,000.0,W*73
$GPGGA,095229.448,3040.617,N,07643.375,E,1,12,1.0,0.0,M,0.0,M,,*63
$GPGSA,A,3,01,02,03,04,05,06,07,08,09,10,11,12,1.0,1.0,1.0*30
$GPRMC,095229.448,A,3040.617,N,07643.375,E,155.5,144.6,080722,000.0,W*7B
$GPGGA,095230.448,3040.580,N,07643.401,E,1,12,1.0,0.0,M,0.0,M,,*62
$GPGSA,A,3,01,02,03,04,05,06,07,08,09,10,11,12,1.0,1.0,1.0*30
$GPRMC,095230.448,A,3040.580,N,07643.401,E,155.5,144.6,080722,000.0,W*7A
$GPGGA,095231.448,3040.544,N,07643.427,E,1,12,1.0,0.0,M,0.0,M,,*6F
$GPGSA,A,3,01,02,03,04,05,06,07,08,09,10,11,12,1.0,1.0,1.0*30
$GPRMC,095231.448,A,3040.544,N,07643.427,E,155.5,144.6,080722,000.0,W*77
$GPGGA,095232.448,3040.507,N,07643.453,E,1,12,1.0,0.0,M,0.0,M,,*68
$GPGSA,A,3,01,02,03,04,05,06,07,08,09,10,11,12,1.0,1.0,1.0*30
$GPRMC,095232.448,A,3040.507,N,07643.453,E,155.5,144.6,080722,000.0,W*70
$GPGGA,095233.448,3040.470,N,07643.479,E,1,12,1.0,0.0,M,0.0,M,,*60
$GPGSA,A,3,01,02,03,04,05,06,07,08,09,10,11,12,1.0,1.0,1.0*30
$GPRMC,095233.448,A,3040.470,N,07643.479,E,155.5,138.9,080722,000.0,W*7C
$GPGGA,095234.448,3040.436,N,07643.510,E,1,12,1.0,0.0,M,0.0,M,,*6B
$GPGSA,A,3,01,02,03,04,05,06,07,08,09,10,11,12,1.0,1.0,1.0*30
$GPRMC,095234.448,A,3040.436,N,07643.510,E,155.5,138.9,080722,000.0,W*77
$GPGGA,095235.448,3040.401,N,07643.540,E,1,12,1.0,0.0,M,0.0,M,,*6B
$GPGSA,A,3,01,02,03,04,05,06,07,08,09,10,11,12,1.0,1.0,1.0*30
$GPRMC,095235.448,A,3040.401,N,07643.540,E,155.5,138.9,080722,000.0,W*77
$GPGGA,095236.448,3040.367,N,07643.570,E,1,12,1.0,0.0,M,0.0,M,,*6C
$GPGSA,A,3,01,02,03,04,05,06,07,08,09,10,11,12,1.0,1.0,1.0*30
$GPRMC,095236.448,A,3040.367,N,07643.570,E,155.5,138.9,080722,000.0,W*70
$GPGGA,095237.448,3040.332,N,07643.600,E,1,12,1.0,0.0,M,0.0,M,,*69
$GPGSA,A,3,01,02,03,04,05,06,07,08,09,10,11,12,1.0,1.0,1.0*30
$GPRMC,095237.448,A,3040.332,N,07643.600,E,155.5,138.9,080722,000.0,W*75
$GPGGA,095238.448,3040.298,N,07643.630,E,1,12,1.0,0.0,M,0.0,M,,*64
$GPGSA,A,3,01,02,03,04,05,06,07,08,09,10,11,12,1.0,1.0,1.0*30
$GPRMC,095238.448,A,3040.298,N,07643.630,E,155.5,138.9,080722,000.0,W*78
$GPGGA,095239.448,3040.263,N,07643.660,E,1,12,1.0,0.0,M,0.0,M,,*64
$GPGSA,A,3,01,02,03,04,05,06,07,08,09,10,11,12,1.0,1.0,1.0*30
$GPRMC,095239.448,A,3040.263,N,07643.660,E,155.5,138.9,080722,000.0,W*78
$GPGGA,095240.448,3040.229,N,07643.691,E,1,12,1.0,0.0,M,0.0,M,,*6A
$GPGSA,A,3,01,02,03,04,05,06,07,08,09,10,11,12,1.0,1.0,1.0*30
$GPRMC,095240.448,A,3040.229,N,07643.691,E,155.5,138.9,080722,000.0,W*76
$GPGGA,095241.448,3040.194,N,07643.721,E,1,12,1.0,0.0,M,0.0,M,,*64
$GPGSA,A,3,01,02,03,04,05,06,07,08,09,10,11,12,1.0,1.0,1.0*30
$GPRMC,095241.448,A,3040.194,N,07643.721,E,155.5,138.9,080722,000.0,W*78
$GPGGA,095242.448,3040.160,N,07643.751,E,1,12,1.0,0.0,M,0.0,M,,*6B
$GPGSA,A,3,01,02,03,04,05,06,07,08,09,10,11,12,1.0,1.0,1.0*30
$GPRMC,095242.448,A,3040.160,N,07643.751,E,155.5,138.9,080722,000.0,W*77
$GPGGA,095243.448,3040.125,N,07643.781,E,1,12,1.0,0.0,M,0.0,M,,*66
$GPGSA,A,3,01,02,03,04,05,06,07,08,09,10,11,12,1.0,1.0,1.0*30
$GPRMC,095243.448,A,3040.125,N,07643.781,E,155.5,138.9,080722,000.0,W*7A
$GPGGA,095244.448,3040.091,N,07643.811,E,1,12,1.0,0.0,M,0.0,M,,*69
$GPGSA,A,3,01,02,03,04,05,06,07,08,09,10,11,12,1.0,1.0,1.0*30
$GPRMC,095244.448,A,3040.091,N,07643.811,E,155.5,138.9,080722,000.0,W*75
$GPGGA,095245.448,3040.056,N,07643.841,E,1,12,1.0,0.0,M,0.0,M,,*66
$GPGSA,A,3,01,02,03,04,05,06,07,08,09,10,11,12,1.0,1.0,1.0*30
$GPRMC,095245.448,A,3040.056,N,07643.841,E,155.5,138.9,080722,000.0,W*7A
$GPGGA,095246.448,3040.022,N,07643.872,E,1,12,1.0,0.0,M,0.0,M,,*66
$GPGSA,A,3,01,02,03,04,05,06,07,08,09,10,11,12,1.0,1.0,1.0*30
$GPRMC,095246.448,A,3040.022,N,07643.872,E,155.5,138.9,080722,000.0,W*7A
$GPGGA,095247.448,3039.987,N,07643.902,E,1,12,1.0,0.0,M,0.0,M,,*69
$GPGSA,A,3,01,02,03,04,05,06,07,08,09,10,11,12,1.0,1.0,1.0*30
$GPRMC,095247.448,A,3039.987,N,07643.902,E,155.5,138.9,080722,000.0,W*75
$GPGGA,095248.448,3039.953,N,07643.932,E,1,12,1.0,0.0,M,0.0,M,,*6C
$GPGSA,A,3,01,02,03,04,05,06,07,08,09,10,11,12,1.0,1.0,1.0*30
$GPRMC,095248.448,A,3039.953,N,07643.932,E,155.5,138.9,080722,000.0,W*70
$GPGGA,095249.448,3039.918,N,07643.962,E,1,12,1.0,0.0,M,0.0,M,,*67
$GPGSA,A,3,01,02,03,04,05,06,07,08,09,10,11,12,1.0,1.0,1.0*30
$GPRMC,095249.448,A,3039.918,N,07643.962,E,155.5,140.7,080722,000.0,W*7A
$GPGGA,095250.448,3039.883,N,07643.991,E,1,12,1.0,0.0,M,0.0,M,,*60
$GPGSA,A,3,01,02,03,04,05,06,07,08,09,10,11,12,1.0,1.0,1.0*30
$GPRMC,095250.448,A,3039.883,N,07643.991,E,155.5,140.7,080722,000.0,W*7D
$GPGGA,095251.448,3039.848,N,07644.020,E,1,12,1.0,0.0,M,0.0,M,,*62
$GPGSA,A,3,01,02,03,04,05,06,07,08,09,10,11,12,1.0,1.0,1.0*30
$GPRMC,095251.448,A,3039.848,N,07644.020,E,155.5,140.7,080722,000.0,W*7F
$GPGGA,095252.448,3039.812,N,07644.049,E,1,12,1.0,0.0,M,0.0,M,,*61
$GPGSA,A,3,01,02,03,04,05,06,07,08,09,10,11,12,1.0,1.0,1.0*30
$GPRMC,095252.448,A,3039.812,N,07644.049,E,155.5,140.7,080722,000.0,W*7C
$GPGGA,095253.448,3039.777,N,07644.078,E,1,12,1.0,0.0,M,0.0,M,,*6E
$GPGSA,A,3,01,02,03,04,05,06,07,08,09,10,11,12,1.0,1.0,1.0*30
$GPRMC,095253.448,A,3039.777,N,07644.078,E,155.5,140.7,080722,000.0,W*73
