$GPGGA,065313.409,3039.972,N,07652.597,E,1,12,1.0,0.0,M,0.0,M,,*69
$GPGSA,A,3,01,02,03,04,05,06,07,08,09,10,11,12,1.0,1.0,1.0*30
$GPRMC,065313.409,A,3039.972,N,07652.597,E,160.4,085.1,210622,000.0,W*77
$GPGGA,065314.409,3039.976,N,07652.648,E,1,12,1.0,0.0,M,0.0,M,,*6B
$GPGSA,A,3,01,02,03,04,05,06,07,08,09,10,11,12,1.0,1.0,1.0*30
$GPRMC,065314.409,A,3039.976,N,07652.648,E,234.8,098.4,210622,000.0,W*72
$GPGGA,065315.409,3039.965,N,07652.723,E,1,12,1.0,0.0,M,0.0,M,,*64
$GPGSA,A,3,01,02,03,04,05,06,07,08,09,10,11,12,1.0,1.0,1.0*30
$GPRMC,065315.409,A,3039.965,N,07652.723,E,177.2,096.7,210622,000.0,W*7E
$GPGGA,065316.409,3039.958,N,07652.780,E,1,12,1.0,0.0,M,0.0,M,,*60
$GPGSA,A,3,01,02,03,04,05,06,07,08,09,10,11,12,1.0,1.0,1.0*30
$GPRMC,065316.409,A,3039.958,N,07652.780,E,256.4,085.4,210622,000.0,W*7D
$GPGGA,065317.409,3039.965,N,07652.862,E,1,12,1.0,0.0,M,0.0,M,,*6C
$GPGSA,A,3,01,02,03,04,05,06,07,08,09,10,11,12,1.0,1.0,1.0*30
$GPRMC,065317.409,A,3039.965,N,07652.862,E,263.8,093.0,210622,000.0,W*78
$GPGGA,065318.409,3039.960,N,07652.947,E,1,12,1.0,0.0,M,0.0,M,,*60
$GPGSA,A,3,01,02,03,04,05,06,07,08,09,10,11,12,1.0,1.0,1.0*30
$GPRMC,065318.409,A,3039.960,N,07652.947,E,215.4,090.0,210622,000.0,W*7A
$GPGGA,065319.409,3039.960,N,07653.017,E,1,12,1.0,0.0,M,0.0,M,,*6C
$GPGSA,A,3,01,02,03,04,05,06,07,08,09,10,11,12,1.0,1.0,1.0*30
$GPRMC,065319.409,A,3039.960,N,07653.017,E,219.1,099.1,210622,000.0,W*77
$GPGGA,065320.409,3039.949,N,07653.086,E,1,12,1.0,0.0,M,0.0,M,,*65
$GPGSA,A,3,01,02,03,04,05,06,07,08,09,10,11,12,1.0,1.0,1.0*30
$GPRMC,065320.409,A,3039.949,N,07653.086,E,168.3,085.3,210622,000.0,W*76
$GPGGA,065321.409,3039.954,N,07653.140,E,1,12,1.0,0.0,M,0.0,M,,*63
$GPGSA,A,3,01,02,03,04,05,06,07,08,09,10,11,12,1.0,1.0,1.0*30
$GPRMC,065321.409,A,3039.954,N,07653.140,E,255.4,088.5,210622,000.0,W*71
$GPGGA,065322.409,3039.956,N,07653.223,E,1,12,1.0,0.0,M,0.0,M,,*64
$GPGSA,A,3,01,02,03,04,05,06,07,08,09,10,11,12,1.0,1.0,1.0*30
$GPRMC,065322.409,A,3039.956,N,07653.223,E,191.7,087.9,210622,000.0,W*7D
$GPGGA,065323.409,3039.958,N,07653.284,E,1,12,1.0,0.0,M,0.0,M,,*66
$GPGSA,A,3,01,02,03,04,05,06,07,08,09,10,11,12,1.0,1.0,1.0*30
$GPRMC,065323.409,A,3039.958,N,07653.284,E,247.5,088.4,210622,000.0,W*77
$GPGGA,065324.409,3039.960,N,07653.364,E,1,12,1.0,0.0,M,0.0,M,,*65
$GPGSA,A,3,01,02,03,04,05,06,07,08,09,10,11,12,1.0,1.0,1.0*30
$GPRMC,065324.409,A,3039.960,N,07653.364,E,064.3,063.8,210622,000.0,W*78
$GPGGA,065325.409,3039.969,N,07653.382,E,1,12,1.0,0.0,M,0.0,M,,*65
$GPGSA,A,3,01,02,03,04,05,06,07,08,09,10,11,12,1.0,1.0,1.0*30
$GPRMC,065325.409,A,3039.969,N,07653.382,E,038.9,001.2,210622,000.0,W*75
$GPGGA,065326.409,3039.980,N,07653.383,E,1,12,1.0,0.0,M,0.0,M,,*60
$GPGSA,A,3,01,02,03,04,05,06,07,08,09,10,11,12,1.0,1.0,1.0*30
$GPRMC,065326.409,A,3039.980,N,07653.383,E,038.9,001.2,210622,000.0,W*70
$GPGGA,065327.409,3039.991,N,07653.383,E,1,12,1.0,0.0,M,0.0,M,,*61
$GPGSA,A,3,01,02,03,04,05,06,07,08,09,10,11,12,1.0,1.0,1.0*30
$GPRMC,065327.409,A,3039.991,N,07653.383,E,038.9,001.2,210622,000.0,W*71
$GPGGA,065328.409,3040.002,N,07653.383,E,1,12,1.0,0.0,M,0.0,M,,*63
$GPGSA,A,3,01,02,03,04,05,06,07,08,09,10,11,12,1.0,1.0,1.0*30
$GPRMC,065328.409,A,3040.002,N,07653.383,E,038.9,001.2,210622,000.0,W*73
$GPGGA,065329.409,3040.012,N,07653.383,E,1,12,1.0,0.0,M,0.0,M,,*63
$GPGSA,A,3,01,02,03,04,05,06,07,08,09,10,11,12,1.0,1.0,1.0*30
$GPRMC,065329.409,A,3040.012,N,07653.383,E,038.9,001.2,210622,000.0,W*73
$GPGGA,065330.409,3040.023,N,07653.384,E,1,12,1.0,0.0,M,0.0,M,,*6E
$GPGSA,A,3,01,02,03,04,05,06,07,08,09,10,11,12,1.0,1.0,1.0*30
$GPRMC,065330.409,A,3040.023,N,07653.384,E,038.9,001.2,210622,000.0,W*7E
$GPGGA,065331.409,3040.034,N,07653.384,E,1,12,1.0,0.0,M,0.0,M,,*69
$GPGSA,A,3,01,02,03,04,05,06,07,08,09,10,11,12,1.0,1.0,1.0*30
$GPRMC,065331.409,A,3040.034,N,07653.384,E,038.9,001.2,210622,000.0,W*79
$GPGGA,065332.409,3040.045,N,07653.384,E,1,12,1.0,0.0,M,0.0,M,,*6C
$GPGSA,A,3,01,02,03,04,05,06,07,08,09,10,11,12,1.0,1.0,1.0*30
$GPRMC,065332.409,A,3040.045,N,07653.384,E,038.9,001.2,210622,000.0,W*7C
$GPGGA,065333.409,3040.056,N,07653.384,E,1,12,1.0,0.0,M,0.0,M,,*6F
$GPGSA,A,3,01,02,03,04,05,06,07,08,09,10,11,12,1.0,1.0,1.0*30
$GPRMC,065333.409,A,3040.056,N,07653.384,E,038.9,001.2,210622,000.0,W*7F
$GPGGA,065334.409,3040.066,N,07653.384,E,1,12,1.0,0.0,M,0.0,M,,*6B
$GPGSA,A,3,01,02,03,04,05,06,07,08,09,10,11,12,1.0,1.0,1.0*30
$GPRMC,065334.409,A,3040.066,N,07653.384,E,038.9,001.2,210622,000.0,W*7B
$GPGGA,065335.409,3040.077,N,07653.385,E,1,12,1.0,0.0,M,0.0,M,,*6B
$GPGSA,A,3,01,02,03,04,05,06,07,08,09,10,11,12,1.0,1.0,1.0*30
$GPRMC,065335.409,A,3040.077,N,07653.385,E,038.9,001.2,210622,000.0,W*7B
$GPGGA,065336.409,3040.088,N,07653.385,E,1,12,1.0,0.0,M,0.0,M,,*68
$GPGSA,A,3,01,02,03,04,05,06,07,08,09,10,11,12,1.0,1.0,1.0*30
$GPRMC,065336.409,A,3040.088,N,07653.385,E,038.9,001.2,210622,000.0,W*78
$GPGGA,065337.409,3040.099,N,07653.385,E,1,12,1.0,0.0,M,0.0,M,,*69
$GPGSA,A,3,01,02,03,04,05,06,07,08,09,10,11,12,1.0,1.0,1.0*30
$GPRMC,065337.409,A,3040.099,N,07653.385,E,038.9,001.2,210622,000.0,W*79
$GPGGA,065338.409,3040.110,N,07653.385,E,1,12,1.0,0.0,M,0.0,M,,*66
$GPGSA,A,3,01,02,03,04,05,06,07,08,09,10,11,12,1.0,1.0,1.0*30
$GPRMC,065338.409,A,3040.110,N,07653.385,E,038.9,001.2,210622,000.0,W*76
$GPGGA,065339.409,3040.120,N,07653.386,E,1,12,1.0,0.0,M,0.0,M,,*67
$GPGSA,A,3,01,02,03,04,05,06,07,08,09,10,11,12,1.0,1.0,1.0*30
$GPRMC,065339.409,A,3040.120,N,07653.386,E,038.9,001.2,210622,000.0,W*77
$GPGGA,065340.409,3040.131,N,07653.386,E,1,12,1.0,0.0,M,0.0,M,,*69
$GPGSA,A,3,01,02,03,04,05,06,07,08,09,10,11,12,1.0,1.0,1.0*30
$GPRMC,065340.409,A,3040.131,N,07653.386,E,038.9,001.2,210622,000.0,W*79
$GPGGA,065341.409,3040.142,N,07653.386,E,1,12,1.0,0.0,M,0.0,M,,*6C
$GPGSA,A,3,01,02,03,04,05,06,07,08,09,10,11,12,1.0,1.0,1.0*30
$GPRMC,065341.409,A,3040.142,N,07653.386,E,038.9,001.2,210622,000.0,W*7C
$GPGGA,065342.409,3040.153,N,07653.386,E,1,12,1.0,0.0,M,0.0,M,,*6F
$GPGSA,A,3,01,02,03,04,05,06,07,08,09,10,11,12,1.0,1.0,1.0*30
$GPRMC,065342.409,A,3040.153,N,07653.386,E,038.9,001.2,210622,000.0,W*7F
$GPGGA,065343.409,3040.164,N,07653.387,E,1,12,1.0,0.0,M,0.0,M,,*6B
$GPGSA,A,3,01,02,03,04,05,06,07,08,09,10,11,12,1.0,1.0,1.0*30
$GPRMC,065343.409,A,3040.164,N,07653.387,E,038.9,001.2,210622,000.0,W*7B
$GPGGA,065344.409,3040.174,N,07653.387,E,1,12,1.0,0.0,M,0.0,M,,*6D
$GPGSA,A,3,01,02,03,04,05,06,07,08,09,10,11,12,1.0,1.0,1.0*30
$GPRMC,065344.409,A,3040.174,N,07653.387,E,038.9,001.2,210622,000.0,W*7D
$GPGGA,065345.409,3040.185,N,07653.387,E,1,12,1.0,0.0,M,0.0,M,,*62
$GPGSA,A,3,01,02,03,04,05,06,07,08,09,10,11,12,1.0,1.0,1.0*30
$GPRMC,065345.409,A,3040.185,N,07653.387,E,038.9,001.2,210622,000.0,W*72
$GPGGA,065346.409,3040.196,N,07653.387,E,1,12,1.0,0.0,M,0.0,M,,*63
$GPGSA,A,3,01,02,03,04,05,06,07,08,09,10,11,12,1.0,1.0,1.0*30
$GPRMC,065346.409,A,3040.196,N,07653.387,E,038.9,001.2,210622,000.0,W*73
$GPGGA,065347.409,3040.207,N,07653.387,E,1,12,1.0,0.0,M,0.0,M,,*69
$GPGSA,A,3,01,02,03,04,05,06,07,08,09,10,11,12,1.0,1.0,1.0*30
$GPRMC,065347.409,A,3040.207,N,07653.387,E,038.9,001.2,210622,000.0,W*79
$GPGGA,065348.409,3040.217,N,07653.388,E,1,12,1.0,0.0,M,0.0,M,,*68
$GPGSA,A,3,01,02,03,04,05,06,07,08,09,10,11,12,1.0,1.0,1.0*30
$GPRMC,065348.409,A,3040.217,N,07653.388,E,038.9,001.2,210622,000.0,W*78
$GPGGA,065349.409,3040.228,N,07653.388,E,1,12,1.0,0.0,M,0.0,M,,*65
$GPGSA,A,3,01,02,03,04,05,06,07,08,09,10,11,12,1.0,1.0,1.0*30
$GPRMC,065349.409,A,3040.228,N,07653.388,E,038.9,001.2,210622,000.0,W*75
$GPGGA,065350.409,3040.239,N,07653.388,E,1,12,1.0,0.0,M,0.0,M,,*6D
$GPGSA,A,3,01,02,03,04,05,06,07,08,09,10,11,12,1.0,1.0,1.0*30
$GPRMC,065350.409,A,3040.239,N,07653.388,E,038.9,001.2,210622,000.0,W*7D
$GPGGA,065351.409,3040.250,N,07653.388,E,1,12,1.0,0.0,M,0.0,M,,*63
$GPGSA,A,3,01,02,03,04,05,06,07,08,09,10,11,12,1.0,1.0,1.0*30
$GPRMC,065351.409,A,3040.250,N,07653.388,E,038.9,001.2,210622,000.0,W*73
$GPGGA,065352.409,3040.261,N,07653.389,E,1,12,1.0,0.0,M,0.0,M,,*63
$GPGSA,A,3,01,02,03,04,05,06,07,08,09,10,11,12,1.0,1.0,1.0*30
$GPRMC,065352.409,A,3040.261,N,07653.389,E,038.9,001.2,210622,000.0,W*73
$GPGGA,065353.409,3040.271,N,07653.389,E,1,12,1.0,0.0,M,0.0,M,,*63
$GPGSA,A,3,01,02,03,04,05,06,07,08,09,10,11,12,1.0,1.0,1.0*30
$GPRMC,065353.409,A,3040.271,N,07653.389,E,038.9,001.2,210622,000.0,W*73
$GPGGA,065354.409,3040.282,N,07653.389,E,1,12,1.0,0.0,M,0.0,M,,*68
$GPGSA,A,3,01,02,03,04,05,06,07,08,09,10,11,12,1.0,1.0,1.0*30
$GPRMC,065354.409,A,3040.282,N,07653.389,E,038.9,001.2,210622,000.0,W*78
$GPGGA,065355.409,3040.293,N,07653.389,E,1,12,1.0,0.0,M,0.0,M,,*69
$GPGSA,A,3,01,02,03,04,05,06,07,08,09,10,11,12,1.0,1.0,1.0*30
$GPRMC,065355.409,A,3040.293,N,07653.389,E,038.9,001.2,210622,000.0,W*79
$GPGGA,065356.409,3040.304,N,07653.390,E,1,12,1.0,0.0,M,0.0,M,,*6D
$GPGSA,A,3,01,02,03,04,05,06,07,08,09,10,11,12,1.0,1.0,1.0*30
$GPRMC,065356.409,A,3040.304,N,07653.390,E,038.9,001.2,210622,000.0,W*7D
$GPGGA,065357.409,3040.315,N,07653.390,E,1,12,1.0,0.0,M,0.0,M,,*6C
$GPGSA,A,3,01,02,03,04,05,06,07,08,09,10,11,12,1.0,1.0,1.0*30
$GPRMC,065357.409,A,3040.315,N,07653.390,E,038.9,001.2,210622,000.0,W*7C
$GPGGA,065358.409,3040.325,N,07653.390,E,1,12,1.0,0.0,M,0.0,M,,*60
$GPGSA,A,3,01,02,03,04,05,06,07,08,09,10,11,12,1.0,1.0,1.0*30
$GPRMC,065358.409,A,3040.325,N,07653.390,E,038.9,001.2,210622,000.0,W*70
$GPGGA,065359.409,3040.336,N,07653.390,E,1,12,1.0,0.0,M,0.0,M,,*63
$GPGSA,A,3,01,02,03,04,05,06,07,08,09,10,11,12,1.0,1.0,1.0*30
$GPRMC,065359.409,A,3040.336,N,07653.390,E,038.9,001.2,210622,000.0,W*73
$GPGGA,065400.409,3040.347,N,07653.391,E,1,12,1.0,0.0,M,0.0,M,,*6F
$GPGSA,A,3,01,02,03,04,05,06,07,08,09,10,11,12,1.0,1.0,1.0*30
$GPRMC,065400.409,A,3040.347,N,07653.391,E,038.9,001.2,210622,000.0,W*7F
$GPGGA,065401.409,3040.358,N,07653.391,E,1,12,1.0,0.0,M,0.0,M,,*60
$GPGSA,A,3,01,02,03,04,05,06,07,08,09,10,11,12,1.0,1.0,1.0*30
$GPRMC,065401.409,A,3040.358,N,07653.391,E,038.9,001.2,210622,000.0,W*70
$GPGGA,065402.409,3040.369,N,07653.391,E,1,12,1.0,0.0,M,0.0,M,,*61
$GPGSA,A,3,01,02,03,04,05,06,07,08,09,10,11,12,1.0,1.0,1.0*30
$GPRMC,065402.409,A,3040.369,N,07653.391,E,038.9,001.2,210622,000.0,W*71
$GPGGA,065403.409,3040.379,N,07653.391,E,1,12,1.0,0.0,M,0.0,M,,*61
$GPGSA,A,3,01,02,03,04,05,06,07,08,09,10,11,12,1.0,1.0,1.0*30
$GPRMC,065403.409,A,3040.379,N,07653.391,E,038.9,001.2,210622,000.0,W*71
$GPGGA,065404.409,3040.390,N,07653.391,E,1,12,1.0,0.0,M,0.0,M,,*61
$GPGSA,A,3,01,02,03,04,05,06,07,08,09,10,11,12,1.0,1.0,1.0*30
$GPRMC,065404.409,A,3040.390,N,07653.391,E,038.9,001.2,210622,000.0,W*71
$GPGGA,065405.409,3040.401,N,07653.392,E,1,12,1.0,0.0,M,0.0,M,,*6C
$GPGSA,A,3,01,02,03,04,05,06,07,08,09,10,11,12,1.0,1.0,1.0*30
$GPRMC,065405.409,A,3040.401,N,07653.392,E,038.9,001.2,210622,000.0,W*7C
$GPGGA,065406.409,3040.412,N,07653.392,E,1,12,1.0,0.0,M,0.0,M,,*6D
$GPGSA,A,3,01,02,03,04,05,06,07,08,09,10,11,12,1.0,1.0,1.0*30
$GPRMC,065406.409,A,3040.412,N,07653.392,E,038.9,001.2,210622,000.0,W*7D
$GPGGA,065407.409,3040.422,N,07653.392,E,1,12,1.0,0.0,M,0.0,M,,*6F
$GPGSA,A,3,01,02,03,04,05,06,07,08,09,10,11,12,1.0,1.0,1.0*30
$GPRMC,065407.409,A,3040.422,N,07653.392,E,038.9,001.2,210622,000.0,W*7F
$GPGGA,065408.409,3040.433,N,07653.392,E,1,12,1.0,0.0,M,0.0,M,,*60
$GPGSA,A,3,01,02,03,04,05,06,07,08,09,10,11,12,1.0,1.0,1.0*30
$GPRMC,065408.409,A,3040.433,N,07653.392,E,038.9,001.2,210622,000.0,W*70
$GPGGA,065409.409,3040.444,N,07653.393,E,1,12,1.0,0.0,M,0.0,M,,*60
$GPGSA,A,3,01,02,03,04,05,06,07,08,09,10,11,12,1.0,1.0,1.0*30
$GPRMC,065409.409,A,3040.444,N,07653.393,E,038.9,001.2,210622,000.0,W*70
$GPGGA,065410.409,3040.455,N,07653.393,E,1,12,1.0,0.0,M,0.0,M,,*68
$GPGSA,A,3,01,02,03,04,05,06,07,08,09,10,11,12,1.0,1.0,1.0*30
$GPRMC,065410.409,A,3040.455,N,07653.393,E,038.9,001.2,210622,000.0,W*78
$GPGGA,065411.409,3040.466,N,07653.393,E,1,12,1.0,0.0,M,0.0,M,,*69
$GPGSA,A,3,01,02,03,04,05,06,07,08,09,10,11,12,1.0,1.0,1.0*30
$GPRMC,065411.409,A,3040.466,N,07653.393,E,038.9,001.2,210622,000.0,W*79
$GPGGA,065412.409,3040.476,N,07653.393,E,1,12,1.0,0.0,M,0.0,M,,*6B
$GPGSA,A,3,01,02,03,04,05,06,07,08,09,10,11,12,1.0,1.0,1.0*30
$GPRMC,065412.409,A,3040.476,N,07653.393,E,038.9,001.2,210622,000.0,W*7B
$GPGGA,065413.409,3040.487,N,07653.394,E,1,12,1.0,0.0,M,0.0,M,,*63
$GPGSA,A,3,01,02,03,04,05,06,07,08,09,10,11,12,1.0,1.0,1.0*30
$GPRMC,065413.409,A,3040.487,N,07653.394,E,038.9,001.2,210622,000.0,W*73
$GPGGA,065414.409,3040.498,N,07653.394,E,1,12,1.0,0.0,M,0.0,M,,*6A
$GPGSA,A,3,01,02,03,04,05,06,07,08,09,10,11,12,1.0,1.0,1.0*30
$GPRMC,065414.409,A,3040.498,N,07653.394,E,038.9,001.2,210622,000.0,W*7A
$GPGGA,065415.409,3040.509,N,07653.394,E,1,12,1.0,0.0,M,0.0,M,,*62
$GPGSA,A,3,01,02,03,04,05,06,07,08,09,10,11,12,1.0,1.0,1.0*30
$GPRMC,065415.409,A,3040.509,N,07653.394,E,038.9,001.2,210622,000.0,W*72
$GPGGA,065416.409,3040.520,N,07653.394,E,1,12,1.0,0.0,M,0.0,M,,*6A
$GPGSA,A,3,01,02,03,04,05,06,07,08,09,10,11,12,1.0,1.0,1.0*30
$GPRMC,065416.409,A,3040.520,N,07653.394,E,038.9,001.2,210622,000.0,W*7A
$GPGGA,065417.409,3040.530,N,07653.394,E,1,12,1.0,0.0,M,0.0,M,,*6A
$GPGSA,A,3,01,02,03,04,05,06,07,08,09,10,11,12,1.0,1.0,1.0*30
$GPRMC,065417.409,A,3040.530,N,07653.394,E,038.9,001.2,210622,000.0,W*7A
$GPGGA,065418.409,3040.541,N,07653.395,E,1,12,1.0,0.0,M,0.0,M,,*62
$GPGSA,A,3,01,02,03,04,05,06,07,08,09,10,11,12,1.0,1.0,1.0*30
$GPRMC,065418.409,A,3040.541,N,07653.395,E,038.9,001.2,210622,000.0,W*72
$GPGGA,065419.409,3040.552,N,07653.395,E,1,12,1.0,0.0,M,0.0,M,,*61
$GPGSA,A,3,01,02,03,04,05,06,07,08,09,10,11,12,1.0,1.0,1.0*30
$GPRMC,065419.409,A,3040.552,N,07653.395,E,038.9,001.2,210622,000.0,W*71
$GPGGA,065420.409,3040.563,N,07653.395,E,1,12,1.0,0.0,M,0.0,M,,*69
$GPGSA,A,3,01,02,03,04,05,06,07,08,09,10,11,12,1.0,1.0,1.0*30
$GPRMC,065420.409,A,3040.563,N,07653.395,E,038.9,001.2,210622,000.0,W*79
$GPGGA,065421.409,3040.574,N,07653.395,E,1,12,1.0,0.0,M,0.0,M,,*6E
$GPGSA,A,3,01,02,03,04,05,06,07,08,09,10,11,12,1.0,1.0,1.0*30
$GPRMC,065421.409,A,3040.574,N,07653.395,E,038.9,001.2,210622,000.0,W*7E
$GPGGA,065422.409,3040.584,N,07653.396,E,1,12,1.0,0.0,M,0.0,M,,*61
$GPGSA,A,3,01,02,03,04,05,06,07,08,09,10,11,12,1.0,1.0,1.0*30
$GPRMC,065422.409,A,3040.584,N,07653.396,E,038.9,001.2,210622,000.0,W*71
$GPGGA,065423.409,3040.595,N,07653.396,E,1,12,1.0,0.0,M,0.0,M,,*60
$GPGSA,A,3,01,02,03,04,05,06,07,08,09,10,11,12,1.0,1.0,1.0*30
$GPRMC,065423.409,A,3040.595,N,07653.396,E,038.9,001.2,210622,000.0,W*70
$GPGGA,065424.409,3040.606,N,07653.396,E,1,12,1.0,0.0,M,0.0,M,,*6E
$GPGSA,A,3,01,02,03,04,05,06,07,08,09,10,11,12,1.0,1.0,1.0*30
$GPRMC,065424.409,A,3040.606,N,07653.396,E,038.9,001.2,210622,000.0,W*7E
$GPGGA,065425.409,3040.617,N,07653.396,E,1,12,1.0,0.0,M,0.0,M,,*6F
$GPGSA,A,3,01,02,03,04,05,06,07,08,09,10,11,12,1.0,1.0,1.0*30
$GPRMC,065425.409,A,3040.617,N,07653.396,E,038.9,001.2,210622,000.0,W*7F
$GPGGA,065426.409,3040.628,N,07653.397,E,1,12,1.0,0.0,M,0.0,M,,*61
$GPGSA,A,3,01,02,03,04,05,06,07,08,09,10,11,12,1.0,1.0,1.0*30
$GPRMC,065426.409,A,3040.628,N,07653.397,E,038.9,001.2,210622,000.0,W*71
$GPGGA,065427.409,3040.638,N,07653.397,E,1,12,1.0,0.0,M,0.0,M,,*61
$GPGSA,A,3,01,02,03,04,05,06,07,08,09,10,11,12,1.0,1.0,1.0*30
$GPRMC,065427.409,A,3040.638,N,07653.397,E,038.9,001.2,210622,000.0,W*71
$GPGGA,065428.409,3040.649,N,07653.397,E,1,12,1.0,0.0,M,0.0,M,,*68
$GPGSA,A,3,01,02,03,04,05,06,07,08,09,10,11,12,1.0,1.0,1.0*30
$GPRMC,065428.409,A,3040.649,N,07653.397,E,038.9,001.2,210622,000.0,W*78
$GPGGA,065429.409,3040.660,N,07653.397,E,1,12,1.0,0.0,M,0.0,M,,*62
$GPGSA,A,3,01,02,03,04,05,06,07,08,09,10,11,12,1.0,1.0,1.0*30
$GPRMC,065429.409,A,3040.660,N,07653.397,E,038.9,001.2,210622,000.0,W*72
$GPGGA,065430.409,3040.671,N,07653.398,E,1,12,1.0,0.0,M,0.0,M,,*65
$GPGSA,A,3,01,02,03,04,05,06,07,08,09,10,11,12,1.0,1.0,1.0*30
$GPRMC,065430.409,A,3040.671,N,07653.398,E,038.9,001.2,210622,000.0,W*75
$GPGGA,065431.409,3040.681,N,07653.398,E,1,12,1.0,0.0,M,0.0,M,,*6B
$GPGSA,A,3,01,02,03,04,05,06,07,08,09,10,11,12,1.0,1.0,1.0*30
$GPRMC,065431.409,A,3040.681,N,07653.398,E,038.9,017.7,210622,000.0,W*79
$GPGGA,065432.409,3040.692,N,07653.401,E,1,12,1.0,0.0,M,0.0,M,,*6D
$GPGSA,A,3,01,02,03,04,05,06,07,08,09,10,11,12,1.0,1.0,1.0*30
$GPRMC,065432.409,A,3040.692,N,07653.401,E,038.9,017.7,210622,000.0,W*7F
$GPGGA,065433.409,3040.702,N,07653.404,E,1,12,1.0,0.0,M,0.0,M,,*61
$GPGSA,A,3,01,02,03,04,05,06,07,08,09,10,11,12,1.0,1.0,1.0*30
$GPRMC,065433.409,A,3040.702,N,07653.404,E,038.9,017.7,210622,000.0,W*73
$GPGGA,065434.409,3040.713,N,07653.408,E,1,12,1.0,0.0,M,0.0,M,,*6A
$GPGSA,A,3,01,02,03,04,05,06,07,08,09,10,11,12,1.0,1.0,1.0*30
$GPRMC,065434.409,A,3040.713,N,07653.408,E,038.9,017.7,210622,000.0,W*78
$GPGGA,065435.409,3040.723,N,07653.411,E,1,12,1.0,0.0,M,0.0,M,,*60
$GPGSA,A,3,01,02,03,04,05,06,07,08,09,10,11,12,1.0,1.0,1.0*30
$GPRMC,065435.409,A,3040.723,N,07653.411,E,038.9,017.7,210622,000.0,W*72
$GPGGA,065436.409,3040.733,N,07653.414,E,1,12,1.0,0.0,M,0.0,M,,*67
$GPGSA,A,3,01,02,03,04,05,06,07,08,09,10,11,12,1.0,1.0,1.0*30
$GPRMC,065436.409,A,3040.733,N,07653.414,E,038.9,017.7,210622,000.0,W*75
$GPGGA,065437.409,3040.744,N,07653.418,E,1,12,1.0,0.0,M,0.0,M,,*6A
$GPGSA,A,3,01,02,03,04,05,06,07,08,09,10,11,12,1.0,1.0,1.0*30
$GPRMC,065437.409,A,3040.744,N,07653.418,E,038.9,017.7,210622,000.0,W*78
$GPGGA,065438.409,3040.754,N,07653.421,E,1,12,1.0,0.0,M,0.0,M,,*6E
$GPGSA,A,3,01,02,03,04,05,06,07,08,09,10,11,12,1.0,1.0,1.0*30
$GPRMC,065438.409,A,3040.754,N,07653.421,E,038.9,017.7,210622,000.0,W*7C
$GPGGA,065439.409,3040.765,N,07653.424,E,1,12,1.0,0.0,M,0.0,M,,*68
$GPGSA,A,3,01,02,03,04,05,06,07,08,09,10,11,12,1.0,1.0,1.0*30
$GPRMC,065439.409,A,3040.765,N,07653.424,E,038.9,017.7,210622,000.0,W*7A
$GPGGA,065440.409,3040.775,N,07653.428,E,1,12,1.0,0.0,M,0.0,M,,*6B
$GPGSA,A,3,01,02,03,04,05,06,07,08,09,10,11,12,1.0,1.0,1.0*30
$GPRMC,065440.409,A,3040.775,N,07653.428,E,038.9,017.7,210622,000.0,W*79
$GPGGA,065441.409,3040.786,N,07653.431,E,1,12,1.0,0.0,M,0.0,M,,*6E
$GPGSA,A,3,01,02,03,04,05,06,07,08,09,10,11,12,1.0,1.0,1.0*30
$GPRMC,065441.409,A,3040.786,N,07653.431,E,038.9,017.7,210622,000.0,W*7C
$GPGGA,065442.409,3040.796,N,07653.434,E,1,12,1.0,0.0,M,0.0,M,,*69
$GPGSA,A,3,01,02,03,04,05,06,07,08,09,10,11,12,1.0,1.0,1.0*30
$GPRMC,065442.409,A,3040.796,N,07653.434,E,038.9,017.7,210622,000.0,W*7B
$GPGGA,065443.409,3040.806,N,07653.438,E,1,12,1.0,0.0,M,0.0,M,,*62
$GPGSA,A,3,01,02,03,04,05,06,07,08,09,10,11,12,1.0,1.0,1.0*30
$GPRMC,065443.409,A,3040.806,N,07653.438,E,038.9,017.7,210622,000.0,W*70
$GPGGA,065444.409,3040.817,N,07653.441,E,1,12,1.0,0.0,M,0.0,M,,*6B
$GPGSA,A,3,01,02,03,04,05,06,07,08,09,10,11,12,1.0,1.0,1.0*30
$GPRMC,065444.409,A,3040.817,N,07653.441,E,038.9,017.7,210622,000.0,W*79
$GPGGA,065445.409,3040.827,N,07653.444,E,1,12,1.0,0.0,M,0.0,M,,*6C
$GPGSA,A,3,01,02,03,04,05,06,07,08,09,10,11,12,1.0,1.0,1.0*30
$GPRMC,065445.409,A,3040.827,N,07653.444,E,038.9,017.7,210622,000.0,W*7E
$GPGGA,065446.409,3040.838,N,07653.448,E,1,12,1.0,0.0,M,0.0,M,,*6D
$GPGSA,A,3,01,02,03,04,05,06,07,08,09,10,11,12,1.0,1.0,1.0*30
$GPRMC,065446.409,A,3040.838,N,07653.448,E,038.9,017.7,210622,000.0,W*7F
$GPGGA,065447.409,3040.848,N,07653.451,E,1,12,1.0,0.0,M,0.0,M,,*63
$GPGSA,A,3,01,02,03,04,05,06,07,08,09,10,11,12,1.0,1.0,1.0*30
$GPRMC,065447.409,A,3040.848,N,07653.451,E,038.9,355.8,210622,000.0,W*7B
$GPGGA,065448.409,3040.859,N,07653.450,E,1,12,1.0,0.0,M,0.0,M,,*6D
$GPGSA,A,3,01,02,03,04,05,06,07,08,09,10,11,12,1.0,1.0,1.0*30
$GPRMC,065448.409,A,3040.859,N,07653.450,E,038.9,355.8,210622,000.0,W*75
$GPGGA,065449.409,3040.869,N,07653.449,E,1,12,1.0,0.0,M,0.0,M,,*67
$GPGSA,A,3,01,02,03,04,05,06,07,08,09,10,11,12,1.0,1.0,1.0*30
$GPRMC,065449.409,A,3040.869,N,07653.449,E,038.9,355.8,210622,000.0,W*7F
$GPGGA,065450.409,3040.880,N,07653.449,E,1,12,1.0,0.0,M,0.0,M,,*68
$GPGSA,A,3,01,02,03,04,05,06,07,08,09,10,11,12,1.0,1.0,1.0*30
$GPRMC,065450.409,A,3040.880,N,07653.449,E,038.9,355.8,210622,000.0,W*70
$GPGGA,065451.409,3040.891,N,07653.448,E,1,12,1.0,0.0,M,0.0,M,,*68
$GPGSA,A,3,01,02,03,04,05,06,07,08,09,10,11,12,1.0,1.0,1.0*30
$GPRMC,065451.409,A,3040.891,N,07653.448,E,038.9,355.8,210622,000.0,W*70
$GPGGA,065452.409,3040.902,N,07653.447,E,1,12,1.0,0.0,M,0.0,M,,*6F
$GPGSA,A,3,01,02,03,04,05,06,07,08,09,10,11,12,1.0,1.0,1.0*30
$GPRMC,065452.409,A,3040.902,N,07653.447,E,038.9,355.8,210622,000.0,W*77
$GPGGA,065453.409,3040.913,N,07653.446,E,1,12,1.0,0.0,M,0.0,M,,*6F
$GPGSA,A,3,01,02,03,04,05,06,07,08,09,10,11,12,1.0,1.0,1.0*30
$GPRMC,065453.409,A,3040.913,N,07653.446,E,038.9,355.8,210622,000.0,W*77
$GPGGA,065454.409,3040.923,N,07653.445,E,1,12,1.0,0.0,M,0.0,M,,*68
$GPGSA,A,3,01,02,03,04,05,06,07,08,09,10,11,12,1.0,1.0,1.0*30
$GPRMC,065454.409,A,3040.923,N,07653.445,E,038.9,355.8,210622,000.0,W*70
$GPGGA,065455.409,3040.934,N,07653.445,E,1,12,1.0,0.0,M,0.0,M,,*6F
$GPGSA,A,3,01,02,03,04,05,06,07,08,09,10,11,12,1.0,1.0,1.0*30
$GPRMC,065455.409,A,3040.934,N,07653.445,E,038.9,355.8,210622,000.0,W*77
$GPGGA,065456.409,3040.945,N,07653.444,E,1,12,1.0,0.0,M,0.0,M,,*6B
$GPGSA,A,3,01,02,03,04,05,06,07,08,09,10,11,12,1.0,1.0,1.0*30
$GPRMC,065456.409,A,3040.945,N,07653.444,E,038.9,355.8,210622,000.0,W*73
$GPGGA,065457.409,3040.956,N,07653.443,E,1,12,1.0,0.0,M,0.0,M,,*6F
$GPGSA,A,3,01,02,03,04,05,06,07,08,09,10,11,12,1.0,1.0,1.0*30
$GPRMC,065457.409,A,3040.956,N,07653.443,E,038.9,355.8,210622,000.0,W*77
$GPGGA,065458.409,3040.966,N,07653.442,E,1,12,1.0,0.0,M,0.0,M,,*62
$GPGSA,A,3,01,02,03,04,05,06,07,08,09,10,11,12,1.0,1.0,1.0*30
$GPRMC,065458.409,A,3040.966,N,07653.442,E,038.9,355.8,210622,000.0,W*7A
$GPGGA,065459.409,3040.977,N,07653.442,E,1,12,1.0,0.0,M,0.0,M,,*63
$GPGSA,A,3,01,02,03,04,05,06,07,08,09,10,11,12,1.0,1.0,1.0*30
$GPRMC,065459.409,A,3040.977,N,07653.442,E,038.9,355.8,210622,000.0,W*7B
$GPGGA,065500.409,3040.988,N,07653.441,E,1,12,1.0,0.0,M,0.0,M,,*6D
$GPGSA,A,3,01,02,03,04,05,06,07,08,09,10,11,12,1.0,1.0,1.0*30
$GPRMC,065500.409,A,3040.988,N,07653.441,E,038.9,355.8,210622,000.0,W*75
$GPGGA,065501.409,3040.999,N,07653.440,E,1,12,1.0,0.0,M,0.0,M,,*6D
$GPGSA,A,3,01,02,03,04,05,06,07,08,09,10,11,12,1.0,1.0,1.0*30
$GPRMC,065501.409,A,3040.999,N,07653.440,E,038.9,355.8,210622,000.0,W*75
$GPGGA,065502.409,3041.010,N,07653.439,E,1,12,1.0,0.0,M,0.0,M,,*69
$GPGSA,A,3,01,02,03,04,05,06,07,08,09,10,11,12,1.0,1.0,1.0*30
$GPRMC,065502.409,A,3041.010,N,07653.439,E,038.9,355.8,210622,000.0,W*71
$GPGGA,065503.409,3041.020,N,07653.438,E,1,12,1.0,0.0,M,0.0,M,,*6A
$GPGSA,A,3,01,02,03,04,05,06,07,08,09,10,11,12,1.0,1.0,1.0*30
$GPRMC,065503.409,A,3041.020,N,07653.438,E,038.9,355.8,210622,000.0,W*72
$GPGGA,065504.409,3041.031,N,07653.438,E,1,12,1.0,0.0,M,0.0,M,,*6D
$GPGSA,A,3,01,02,03,04,05,06,07,08,09,10,11,12,1.0,1.0,1.0*30
$GPRMC,065504.409,A,3041.031,N,07653.438,E,038.9,355.8,210622,000.0,W*75
$GPGGA,065505.409,3041.042,N,07653.437,E,1,12,1.0,0.0,M,0.0,M,,*67
$GPGSA,A,3,01,02,03,04,05,06,07,08,09,10,11,12,1.0,1.0,1.0*30
$GPRMC,065505.409,A,3041.042,N,07653.437,E,333.7,355.0,210622,000.0,W*71
$GPGGA,065506.409,3041.134,N,07653.429,E,1,12,1.0,0.0,M,0.0,M,,*6B
$GPGSA,A,3,01,02,03,04,05,06,07,08,09,10,11,12,1.0,1.0,1.0*30
$GPRMC,065506.409,A,3041.134,N,07653.429,E,470.7,001.1,210622,000.0,W*7E
$GPGGA,065507.409,3041.265,N,07653.431,E,1,12,1.0,0.0,M,0.0,M,,*64
$GPGSA,A,3,01,02,03,04,05,06,07,08,09,10,11,12,1.0,1.0,1.0*30
$GPRMC,065507.409,A,3041.265,N,07653.431,E,398.9,358.7,210622,000.0,W*77
$GPGGA,065508.409,3041.376,N,07653.429,E,1,12,1.0,0.0,M,0.0,M,,*61
$GPGSA,A,3,01,02,03,04,05,06,07,08,09,10,11,12,1.0,1.0,1.0*30
$GPRMC,065508.409,A,3041.376,N,07653.429,E,321.6,326.4,210622,000.0,W*75
$GPGGA,065509.409,3041.453,N,07653.377,E,1,12,1.0,0.0,M,0.0,M,,*6C
$GPGSA,A,3,01,02,03,04,05,06,07,08,09,10,11,12,1.0,1.0,1.0*30
$GPRMC,065509.409,A,3041.453,N,07653.377,E,382.0,295.2,210622,000.0,W*78
$GPGGA,065510.409,3041.504,N,07653.269,E,1,12,1.0,0.0,M,0.0,M,,*69
$GPGSA,A,3,01,02,03,04,05,06,07,08,09,10,11,12,1.0,1.0,1.0*30
$GPRMC,065510.409,A,3041.504,N,07653.269,E,397.4,279.0,210622,000.0,W*7D
$GPGGA,065511.409,3041.524,N,07653.143,E,1,12,1.0,0.0,M,0.0,M,,*61
$GPGSA,A,3,01,02,03,04,05,06,07,08,09,10,11,12,1.0,1.0,1.0*30
$GPRMC,065511.409,A,3041.524,N,07653.143,E,349.9,308.9,210622,000.0,W*75
$GPGGA,065512.409,3041.590,N,07653.060,E,1,12,1.0,0.0,M,0.0,M,,*6D
$GPGSA,A,3,01,02,03,04,05,06,07,08,09,10,11,12,1.0,1.0,1.0*30
$GPRMC,065512.409,A,3041.590,N,07653.060,E,167.7,272.3,210622,000.0,W*7F
$GPGGA,065513.409,3041.593,N,07653.006,E,1,12,1.0,0.0,M,0.0,M,,*6F
$GPGSA,A,3,01,02,03,04,05,06,07,08,09,10,11,12,1.0,1.0,1.0*30
$GPRMC,065513.409,A,3041.593,N,07653.006,E,167.7,272.3,210622,000.0,W*7D
